Unnamed: 0,匯入時間,統計時間,縣市,站點UID,業管機關代碼,站點名稱,lat,lng
87171,20211201,202110,台南市,TNN10010,8,台南站,22.98237,120.19759
87172,20211201,202110,台南市,TNN10011,8,臺南火車站(南站),22.99706,120.21119
87173,20211201,202110,台南市,TNN10013,8,臺南火車站(南站),22.99706,120.21119
87174,20211201,202110,台南市,TNN10014,8,塭南里,23.06983,120.22081
87175,20211201,202110,台南市,TNN10015,8,台南站,22.98206,120.19775
87176,20211201,202110,台南市,TNN10019,8,海東國小,23.04889,120.17531
87177,20211201,202110,台南市,TNN10021,8,海東國小,23.04888,120.17569
87178,20211201,202110,台南市,TNN10022,8,鹽行,23.04088,120.23653
87179,20211201,202110,台南市,TNN10023,8,臺南航空站(奇美幸福工廠),22.94842,120.21677
87180,20211201,202110,台南市,TNN10024,8,鹽行,23.04071,120.23662
87181,20211201,202110,台南市,TNN10025,8,裕誠街口,22.98783,120.23957
87182,20211201,202110,台南市,TNN10026,8,新興國宅,22.96162,120.18707
87183,20211201,202110,台南市,TNN10027,8,龍崗國小,22.96158,120.16962
87184,20211201,202110,台南市,TNN10028,8,裕誠街口,22.98794,120.23958
87185,20211201,202110,台南市,TNN10029,8,臺南火車站(南站),22.99721,120.21124
87186,20211201,202110,台南市,TNN10030,8,台糖安南學苑,23.05751,120.15253
87187,20211201,202110,台南市,TNN10031,8,臺南火車站(北站),22.99721,120.21124
87188,20211201,202110,台南市,TNN10032,8,臺南火車站(南站),22.99721,120.21124
87189,20211201,202110,台南市,TNN10033,8,公親里,23.07773,120.20675
87190,20211201,202110,台南市,TNN10034,8,臺南火車站(北站),22.99789,120.21158
87191,20211201,202110,台南市,TNN10040,8,台南醫院,22.99538,120.20931000000002
87192,20211201,202110,台南市,TNN10041,8,中山、民權路口,22.99398,120.20709
87193,20211201,202110,台南市,TNN10042,8,林百貨(中正路),22.99205,120.20221
87194,20211201,202110,台南市,TNN10043,8,中正、西門路口,22.99261,120.19981
87195,20211201,202110,台南市,TNN10044,8,西門、友愛街口,22.99224,120.19834
87196,20211201,202110,台南市,TNN10045,8,小西門(大億麗緻),22.98853,120.19753
87197,20211201,202110,台南市,TNN10046,8,新光三越新天地,22.98661,120.19748
87198,20211201,202110,台南市,TNN10047,8,西門路一段,22.98445,120.19752
87199,20211201,202110,台南市,TNN10048,8,台南站,22.98237,120.19759
87200,20211201,202110,台南市,TNN10049,8,新興國小,22.97887,120.19604
87201,20211201,202110,台南市,TNN10050,8,新興路,22.97753,120.19412
87202,20211201,202110,台南市,TNN10051,8,南稅三村,22.97672,120.19299
87203,20211201,202110,台南市,TNN10052,8,三官廟,22.97566,120.19141
87204,20211201,202110,台南市,TNN10053,8,北鹽埕,22.97365,120.19061
87205,20211201,202110,台南市,TNN10054,8,日新國小,22.97179,120.19057
87206,20211201,202110,台南市,TNN10055,8,鹽埕,22.97042,120.19044
87207,20211201,202110,台南市,TNN10056,8,新都路口,22.96788,120.19017
87208,20211201,202110,台南市,TNN10057,8,金華路一段,22.96589,120.18987
87209,20211201,202110,台南市,TNN10058,8,日新橋,22.96273,120.18938
87210,20211201,202110,台南市,TNN10059,8,南區區公所,22.96031,120.18832
87211,20211201,202110,台南市,TNN10060,8,明興路,22.95802,120.18675
87212,20211201,202110,台南市,TNN10061,8,風櫃門,22.95058,120.18436
87213,20211201,202110,台南市,TNN10062,8,勞工住宅,22.94621,120.17989
87214,20211201,202110,台南市,TNN10063,8,北喜樹,22.94397,120.17981
87215,20211201,202110,台南市,TNN10064,8,喜樹,22.94023,120.17794
87216,20211201,202110,台南市,TNN10065,8,喜南里,22.93895,120.17836
87217,20211201,202110,台南市,TNN10066,8,省躬國小,22.93304,120.18031
87218,20211201,202110,台南市,TNN10067,8,寮仔,22.93275,120.18237
87219,20211201,202110,台南市,TNN10068,8,興農公園,22.92909,120.18549
87220,20211201,202110,台南市,TNN10069,8,馬鎮宮,22.92628,120.18577
87221,20211201,202110,台南市,TNN10071,8,同安里,22.92283,120.18481
87222,20211201,202110,台南市,TNN10072,8,南萣橋北,22.92137,120.18451
87223,20211201,202110,台南市,TNN10073,8,南萣橋南,22.91604,120.18526
87224,20211201,202110,台南市,TNN10074,8,白砂崙,22.91409,120.18548
87225,20211201,202110,台南市,TNN10075,8,白砂崙廟口,22.91258,120.18509
87226,20211201,202110,台南市,TNN10076,8,茄萣農會,22.91125,120.18477
87227,20211201,202110,台南市,TNN10077,8,茄萣電信局,22.90951,120.18443
87228,20211201,202110,台南市,TNN10078,8,威武廟,22.90783,120.18402
87229,20211201,202110,台南市,TNN10079,8,茄萣國中,22.90646,120.18368999999998
87230,20211201,202110,台南市,TNN10080,8,茄萣國小,22.90321,120.18372
87231,20211201,202110,台南市,TNN10081,8,曾厝,22.90079,120.18407
87232,20211201,202110,台南市,TNN10082,8,頂茄萣,22.89846,120.18462
87233,20211201,202110,台南市,TNN10083,8,下茄萣,22.89577,120.18503
87234,20211201,202110,台南市,TNN10084,8,光萣,22.89287,120.18623
87235,20211201,202110,台南市,TNN10087,8,成功橋,22.88923,120.18708
87236,20211201,202110,台南市,TNN10088,8,光萣,22.89288,120.18636
87237,20211201,202110,台南市,TNN10089,8,下茄萣,22.89556,120.18515
87238,20211201,202110,台南市,TNN10090,8,頂茄萣,22.89828,120.18473
87239,20211201,202110,台南市,TNN10091,8,曾厝,22.90149,120.18407
87240,20211201,202110,台南市,TNN10092,8,茄萣國小,22.90368,120.18375
87241,20211201,202110,台南市,TNN10093,8,茄萣國中,22.90639,120.18375
87242,20211201,202110,台南市,TNN10094,8,威武廟,22.90761,120.18403
87243,20211201,202110,台南市,TNN10095,8,茄萣電信局,22.90944,120.18443
87244,20211201,202110,台南市,TNN10096,8,茄萣農會,22.91117,120.18477
87245,20211201,202110,台南市,TNN10097,8,白砂崙廟口,22.91263,120.18501
87246,20211201,202110,台南市,TNN10098,8,白砂崙,22.91446,120.18554
87247,20211201,202110,台南市,TNN10099,8,南萣橋南,22.91614,120.18529
87248,20211201,202110,台南市,TNN10100,8,南萣橋北,22.92119,120.18456
87249,20211201,202110,台南市,TNN10101,8,同安里,22.92331,120.18491000000002
87250,20211201,202110,台南市,TNN10103,8,馬鎮宮,22.92624,120.18586
87251,20211201,202110,台南市,TNN10104,8,興農公園,22.92972,120.18479
87252,20211201,202110,台南市,TNN10105,8,寮仔,22.93265,120.18251
87253,20211201,202110,台南市,TNN10106,8,省躬國小,22.93311,120.18037
87254,20211201,202110,台南市,TNN10107,8,喜南里,22.93871,120.17853
87255,20211201,202110,台南市,TNN10108,8,喜樹,22.94022,120.17803
87256,20211201,202110,台南市,TNN10109,8,北喜樹,22.94374,120.17985
87257,20211201,202110,台南市,TNN10110,8,勞工住宅,22.94653,120.17993
87258,20211201,202110,台南市,TNN10111,8,風櫃門,22.95067,120.18432
87259,20211201,202110,台南市,TNN10112,8,明興路,22.95836,120.18697
87260,20211201,202110,台南市,TNN10113,8,南區區公所,22.96071,120.18888
87261,20211201,202110,台南市,TNN10114,8,日新橋,22.96307,120.18951
87262,20211201,202110,台南市,TNN10115,8,金華路一段,22.96616,120.18994
87263,20211201,202110,台南市,TNN10116,8,新都路口,22.96793,120.19023
87264,20211201,202110,台南市,TNN10117,8,鹽埕,22.97047,120.19051
87265,20211201,202110,台南市,TNN10118,8,日新國小,22.97151,120.19064
87266,20211201,202110,台南市,TNN10119,8,北鹽埕,22.97369,120.19086
87267,20211201,202110,台南市,TNN10120,8,三官廟,22.97566,120.19179
87268,20211201,202110,台南市,TNN10121,8,南稅三村,22.97668,120.19319
87269,20211201,202110,台南市,TNN10122,8,新興路,22.97755,120.19429
87270,20211201,202110,台南市,TNN10123,8,新興國小,22.97896,120.19652
87271,20211201,202110,台南市,TNN10124,8,台南站,22.98206,120.19775
87272,20211201,202110,台南市,TNN10125,8,西門路一段,22.98411,120.19769
87273,20211201,202110,台南市,TNN10126,8,新光三越新天地,22.98695,120.19774
87274,20211201,202110,台南市,TNN10127,8,小西門(大億麗緻),22.98854,120.19769
87275,20211201,202110,台南市,TNN10128,8,西門、友愛街口,22.99113,120.19817
87276,20211201,202110,台南市,TNN10129,8,中正、西門路口,22.99247,120.19959
87277,20211201,202110,台南市,TNN10130,8,林百貨(中正路),22.99202,120.20172
87278,20211201,202110,台南市,TNN10131,8,中山、民權路口,22.99375,120.20709
87279,20211201,202110,台南市,TNN10132,8,台南醫院,22.99528,120.20937
87280,20211201,202110,台南市,TNN10134,8,西門路一段,22.98407000000001,120.19762
87281,20211201,202110,台南市,TNN10135,8,新光三越新天地,22.98695,120.19774
87282,20211201,202110,台南市,TNN10136,8,小西門(大億麗緻),22.98887,120.19785
87283,20211201,202110,台南市,TNN10137,8,西門、友愛街口,22.99113,120.19817
87284,20211201,202110,台南市,TNN10138,8,西門、民權路口,22.99497,120.19939
87285,20211201,202110,台南市,TNN10139,8,西門路三段口,22.99912,120.20101
87286,20211201,202110,台南市,TNN10140,8,成功國小,22.99908,120.20275
87287,20211201,202110,台南市,TNN10141,8,光復市場,22.99849,120.20453
87288,20211201,202110,台南市,TNN10142,8,大道公廟,22.99811,120.20611
87289,20211201,202110,台南市,TNN10143,8,臺南火車站(南站),22.99706,120.21121
87290,20211201,202110,台南市,TNN10144,8,公園南路,23.00074,120.21017
87291,20211201,202110,台南市,TNN10145,8,臺南轉運站,23.00187,120.20928
87292,20211201,202110,台南市,TNN10146,8,寮內,23.00642,120.21023
87293,20211201,202110,台南市,TNN10147,8,延平國中,23.01028,120.21077
87294,20211201,202110,台南市,TNN10148,8,延平市場(長榮路),23.01329,120.21271000000002
87295,20211201,202110,台南市,TNN10149,8,正風里,23.015220000000006,120.21358
87296,20211201,202110,台南市,TNN10150,8,正覺里,23.01784,120.21569
87297,20211201,202110,台南市,TNN10151,8,六甲頂,23.01999,120.21621
87298,20211201,202110,台南市,TNN10152,8,溪頂寮橋,23.02674,120.21515
87299,20211201,202110,台南市,TNN10153,8,南安順,23.02831,120.21454
87300,20211201,202110,台南市,TNN10154,8,安順派出所,23.03047,120.21318
87301,20211201,202110,台南市,TNN10155,8,安順市場,23.03275,120.21238999999998
87302,20211201,202110,台南市,TNN10156,8,安順,23.03394,120.21274
87303,20211201,202110,台南市,TNN10157,8,北安順,23.03851,120.21466
87304,20211201,202110,台南市,TNN10158,8,七號橋,23.04066,120.21561
87305,20211201,202110,台南市,TNN10159,8,新和順,23.04438,120.21719
87306,20211201,202110,台南市,TNN10160,8,政安路口,23.04273,120.21643
87307,20211201,202110,台南市,TNN10161,8,安順國小,23.04793,120.21838
87308,20211201,202110,台南市,TNN10162,8,安順國中,23.048820000000006,120.21862
87309,20211201,202110,台南市,TNN10163,8,舊和順北,23.05329,120.21876
87310,20211201,202110,台南市,TNN10164,8,大聖廟,23.05661,120.21862
87311,20211201,202110,台南市,TNN10165,8,中洲寮,23.05837,120.21873
87312,20211201,202110,台南市,TNN10166,8,福國寺,23.06101,120.21878999999998
87313,20211201,202110,台南市,TNN10167,8,和順,23.06229,120.21871000000002
87314,20211201,202110,台南市,TNN10168,8,安和路五段,23.06504,120.21851
87315,20211201,202110,台南市,TNN10169,8,和順國小,23.06647,120.21775
87316,20211201,202110,台南市,TNN10170,8,北和順,23.06866,120.21652
87317,20211201,202110,台南市,TNN10171,8,嘉綠寶社區,23.06972,120.21763
87318,20211201,202110,台南市,TNN10172,8,安昌街口,23.06962,120.21932
87319,20211201,202110,台南市,TNN10177,8,嘉綠寶社區,23.06981,120.21746
87320,20211201,202110,台南市,TNN10178,8,北和順,23.06863,120.21649
87321,20211201,202110,台南市,TNN10179,8,和順國小,23.06671,120.21751
87322,20211201,202110,台南市,TNN10180,8,安和路五段,23.06505,120.21847
87323,20211201,202110,台南市,TNN10181,8,和順,23.06373,120.21871000000002
87324,20211201,202110,台南市,TNN10182,8,福國寺,23.06138,120.21872
87325,20211201,202110,台南市,TNN10183,8,中洲寮,23.05825,120.21861
87326,20211201,202110,台南市,TNN10184,8,大聖廟,23.05665,120.21855
87327,20211201,202110,台南市,TNN10185,8,舊和順北,23.05269,120.21877
87328,20211201,202110,台南市,TNN10186,8,安順國中,23.04977,120.21878999999998
87329,20211201,202110,台南市,TNN10187,8,安順國小,23.04808,120.21836
87330,20211201,202110,台南市,TNN10188,8,政安路口,23.04252,120.21626
87331,20211201,202110,台南市,TNN10189,8,新和順,23.04425,120.21696
87332,20211201,202110,台南市,TNN10190,8,七號橋,23.04063,120.21541
87333,20211201,202110,台南市,TNN10191,8,北安順,23.03885,120.21473
87334,20211201,202110,台南市,TNN10192,8,安順,23.03383,120.21246
87335,20211201,202110,台南市,TNN10193,8,安順市場,23.03276,120.21249
87336,20211201,202110,台南市,TNN10194,8,安順派出所,23.03048,120.21312
87337,20211201,202110,台南市,TNN10195,8,南安順,23.02813,120.21451
87338,20211201,202110,台南市,TNN10196,8,溪頂寮橋,23.02683,120.21501
87339,20211201,202110,台南市,TNN10197,8,六甲頂,23.01997,120.21609
87340,20211201,202110,台南市,TNN10198,8,正覺里,23.01731,120.21511
87341,20211201,202110,台南市,TNN10199,8,正風里,23.01511,120.21331
87342,20211201,202110,台南市,TNN10200,8,延平市場(長榮路),23.01329,120.21271000000002
87343,20211201,202110,台南市,TNN10201,8,延平國中,23.01048,120.21062
87344,20211201,202110,台南市,TNN10202,8,寮內,23.00577,120.21034
87345,20211201,202110,台南市,TNN10203,8,臺南轉運站,23.00171,120.20908
87346,20211201,202110,台南市,TNN10204,8,公園南路,23.00084,120.20972
87347,20211201,202110,台南市,TNN10205,8,臺南火車站(北站),22.99751,120.21116
87348,20211201,202110,台南市,TNN10206,8,大道公廟,22.99821,120.20628
87349,20211201,202110,台南市,TNN10207,8,光復市場,22.99862000000001,120.20457
87350,20211201,202110,台南市,TNN10208,8,成功國小,22.99937000000001,120.20291
87351,20211201,202110,台南市,TNN10209,8,西門路三段口,22.99902,120.20082
87352,20211201,202110,台南市,TNN10210,8,西門、民權路口,22.99583,120.19951
87353,20211201,202110,台南市,TNN10211,8,西門、友愛街口,22.99224,120.19834
87354,20211201,202110,台南市,TNN10212,8,小西門(大億麗緻),22.98853,120.19753
87355,20211201,202110,台南市,TNN10213,8,新光三越新天地,22.98661,120.19748
87356,20211201,202110,台南市,TNN10214,8,西門路一段,22.98445,120.19752
87357,20211201,202110,台南市,TNN10215,8,民生路二段,22.99708,120.19091
87358,20211201,202110,台南市,TNN10216,8,民生路臨時停車場,22.99766,120.18821
87359,20211201,202110,台南市,TNN10217,8,平安里,22.99817,120.18515
87360,20211201,202110,台南市,TNN10218,8,半路厝,22.99832,120.17822
87361,20211201,202110,台南市,TNN10219,8,臨海社區,22.99842,120.18198999999998
87362,20211201,202110,台南市,TNN10221,8,南興,22.99818,120.17267
87363,20211201,202110,台南市,TNN10222,8,承天橋口,22.99838,120.17131
87364,20211201,202110,台南市,TNN10223,8,安平國中,22.99877,120.16931
87365,20211201,202110,台南市,TNN10226,8,石門里,23.00061,120.16677
87366,20211201,202110,台南市,TNN10227,8,安平蚵灰窯文化館,23.00243,120.16428
87367,20211201,202110,台南市,TNN10228,8,漁民村,23.00292,120.16271
87368,20211201,202110,台南市,TNN10229,8,安平古堡(安北路),23.00287,120.16082
87369,20211201,202110,台南市,TNN10230,8,德記洋行、安平樹屋,23.00231,120.15831
87370,20211201,202110,台南市,TNN10231,8,崇義社區,22.99995,120.15321000000002
87371,20211201,202110,台南市,TNN10234,8,運河博物館,22.99921,120.16371
87372,20211201,202110,台南市,TNN10235,8,安平國中(育平路),22.99714,120.16739
87373,20211201,202110,台南市,TNN10236,8,安平區公所(育平路),22.99421,120.16746
87374,20211201,202110,台南市,TNN10237,8,億載金城,22.98893,120.16031
87375,20211201,202110,台南市,TNN10239,8,漁光里,22.98455,120.15363
87376,20211201,202110,台南市,TNN10241,8,瑞復中心,22.98013,120.15653
87377,20211201,202110,台南市,TNN10242,8,漁光分校,22.97782,120.15845
87378,20211201,202110,台南市,TNN10243,8,社頭,22.97585,120.16161
87379,20211201,202110,台南市,TNN10246,8,漁光分校,22.97797000000001,120.15842
87380,20211201,202110,台南市,TNN10247,8,瑞復中心,22.98013,120.15667
87381,20211201,202110,台南市,TNN10251,8,億載金城,22.98912,120.16031
87382,20211201,202110,台南市,TNN10252,8,安平區公所(育平路),22.99433,120.16766
87383,20211201,202110,台南市,TNN10253,8,安平國中(育平路),22.997020000000006,120.16759
87384,20211201,202110,台南市,TNN10254,8,運河博物館,22.99886,120.16376
87385,20211201,202110,台南市,TNN10258,8,港仔里,23.00017,120.16215
87386,20211201,202110,台南市,TNN10259,8,安平,22.99961,120.16418
87387,20211201,202110,台南市,TNN10260,8,安北路口,22.99912,120.16785
87388,20211201,202110,台南市,TNN10261,8,安平國中,22.99854,120.16951
87389,20211201,202110,台南市,TNN10262,8,承天橋口,22.99833,120.17125
87390,20211201,202110,台南市,TNN10263,8,南興,22.99805,120.17287
87391,20211201,202110,台南市,TNN10265,8,臨海社區,22.99831,120.18221
87392,20211201,202110,台南市,TNN10266,8,半路厝,22.99834,120.17874
87393,20211201,202110,台南市,TNN10267,8,平安里,22.99802,120.18511
87394,20211201,202110,台南市,TNN10268,8,民生路臨時停車場,22.99768,120.18798
87395,20211201,202110,台南市,TNN10269,8,民生路二段,22.99701,120.19067
87396,20211201,202110,台南市,TNN10270,8,三鯤鯓,22.97703,120.16141
87397,20211201,202110,台南市,TNN10271,8,天壇,22.97698,120.15971
87398,20211201,202110,台南市,TNN10272,8,安平古堡(安平路),23.00018,120.16068
87399,20211201,202110,台南市,TNN10273,8,安南國中,23.04815,120.17817
87400,20211201,202110,台南市,TNN10274,8,稅務局安南分局,23.04767,120.18087
87401,20211201,202110,台南市,TNN10275,8,安中路三段,23.04731,120.18269
87402,20211201,202110,台南市,TNN10276,8,溪心里,23.04507000000001,120.18541
87403,20211201,202110,台南市,TNN10277,8,南海尾,23.04241,120.18702
87404,20211201,202110,台南市,TNN10278,8,海東里,23.03953,120.18778
87405,20211201,202110,台南市,TNN10279,8,海尾前,23.035870000000006,120.18881
87406,20211201,202110,台南市,TNN10280,8,同安路口,23.03813,120.18813
87407,20211201,202110,台南市,TNN10281,8,理想社區,23.03302,120.18979
87408,20211201,202110,台南市,TNN10282,8,海東橋,23.03055,120.19021
87409,20211201,202110,台南市,TNN10283,8,中華社區,23.02738,120.19088
87410,20211201,202110,台南市,TNN10284,8,協成社區,23.02355,120.19175
87411,20211201,202110,台南市,TNN10285,8,溪仔墘社區,23.02081,120.19221
87412,20211201,202110,台南市,TNN10286,8,文元寮,23.01533,120.19361
87413,20211201,202110,台南市,TNN10287,8,大興街口,23.01383,120.19385
87414,20211201,202110,台南市,TNN10288,8,特力屋、好市多,23.01036,120.19389
87415,20211201,202110,台南市,TNN10289,8,文賢路,23.00602,120.19347
87416,20211201,202110,台南市,TNN10290,8,文賢國中,23.00421,120.19368
87417,20211201,202110,台南市,TNN10291,8,菱洲宮,23.00151,120.19571
87418,20211201,202110,台南市,TNN10292,8,成功路西段,23.00082,120.19761
87419,20211201,202110,台南市,TNN10293,8,西門路三段口,22.99902,120.20082
87420,20211201,202110,台南市,TNN10294,8,赤崁樓,22.99691,120.20221
87421,20211201,202110,台南市,TNN10296,8,台南醫院,22.99528,120.20937
87422,20211201,202110,台南市,TNN10297,8,臺南火車站(南站),22.99706,120.21119
87423,20211201,202110,台南市,TNN10298,8,縣知事官邸,22.99341,120.21171
87424,20211201,202110,台南市,TNN10299,8,東門圓環,22.99021,120.21151
87425,20211201,202110,台南市,TNN10300,8,東門教會,22.98746,120.21581
87426,20211201,202110,台南市,TNN10301,8,東門城,22.98653,120.21913
87427,20211201,202110,台南市,TNN10302,8,龍山寺,22.98582,120.22123
87428,20211201,202110,台南市,TNN10303,8,衛生局,22.98514,120.22325
87429,20211201,202110,台南市,TNN10304,8,富強市場,22.98263,120.22598
87430,20211201,202110,台南市,TNN10305,8,東區區公所,22.97985,120.22339
87431,20211201,202110,台南市,TNN10306,8,崇學、崇明路口,22.97784,120.22067
87432,20211201,202110,台南市,TNN10307,8,文化中心(台糖長榮酒店),22.97537,120.22198
87433,20211201,202110,台南市,TNN10308,8,中華東崇德路口,22.97512,120.22431
87434,20211201,202110,台南市,TNN10309,8,崇德五街口,22.97495,120.22618
87435,20211201,202110,台南市,TNN10310,8,崇德十街口,22.97268,120.22748
87436,20211201,202110,台南市,TNN10311,8,崇德十四街口,22.97085,120.22741
87437,20211201,202110,台南市,TNN10312,8,市立醫院,22.96872,120.22764
87438,20211201,202110,台南市,TNN10313,8,東區電信局,22.96576,120.22741
87439,20211201,202110,台南市,TNN10314,8,德東街口,22.96191,120.22748
87440,20211201,202110,台南市,TNN10319,8,消防局崇善分隊,22.96604,120.23167
87441,20211201,202110,台南市,TNN10320,8,大智里,22.96522,120.22972
87442,20211201,202110,台南市,TNN10321,8,東區電信局,22.96571,120.22757
87443,20211201,202110,台南市,TNN10322,8,市立醫院,22.96878,120.22759
87444,20211201,202110,台南市,TNN10323,8,崇德十四街口,22.97082,120.22746
87445,20211201,202110,台南市,TNN10324,8,崇德十街口,22.97273,120.22751
87446,20211201,202110,台南市,TNN10325,8,崇德五街口,22.97508,120.22604
87447,20211201,202110,台南市,TNN10326,8,中華東崇德路口,22.97515,120.22405
87448,20211201,202110,台南市,TNN10327,8,文化中心(台糖長榮酒店),22.97515,120.22238
87449,20211201,202110,台南市,TNN10328,8,崇學、崇明路口,22.97786,120.22084
87450,20211201,202110,台南市,TNN10329,8,東區區公所,22.97931,120.22304
87451,20211201,202110,台南市,TNN10330,8,富強市場,22.98244,120.22573
87452,20211201,202110,台南市,TNN10331,8,衛生局,22.98518,120.22316
87453,20211201,202110,台南市,TNN10332,8,龍山寺,22.98585,120.22137
87454,20211201,202110,台南市,TNN10333,8,東門城,22.98665,120.21858
87455,20211201,202110,台南市,TNN10334,8,東門教會,22.98762,120.21572
87456,20211201,202110,台南市,TNN10335,8,東門圓環,22.99041,120.21156
87457,20211201,202110,台南市,TNN10336,8,縣知事官邸,22.99312,120.21176
87458,20211201,202110,台南市,TNN10337,8,臺南火車站(北站),22.99742,120.21135
87459,20211201,202110,台南市,TNN10338,8,台南醫院,22.99538,120.20931000000002
87460,20211201,202110,台南市,TNN10339,8,民族路,22.99603,120.20515
87461,20211201,202110,台南市,TNN10340,8,赤崁樓,22.99687,120.20263
87462,20211201,202110,台南市,TNN10341,8,西門路三段口,22.99912,120.20101
87463,20211201,202110,台南市,TNN10342,8,成功路西段,23.00091,120.19788
87464,20211201,202110,台南市,TNN10343,8,菱洲宮,23.00161,120.19598
87465,20211201,202110,台南市,TNN10344,8,文賢國中,23.00418,120.19391
87466,20211201,202110,台南市,TNN10345,8,文賢路,23.00621,120.19367
87467,20211201,202110,台南市,TNN10346,8,特力屋、好市多,23.01092,120.19393
87468,20211201,202110,台南市,TNN10347,8,大興街口,23.01241,120.19375
87469,20211201,202110,台南市,TNN10348,8,文元寮,23.01521,120.19361
87470,20211201,202110,台南市,TNN10349,8,溪仔墘社區,23.02072,120.19238
87471,20211201,202110,台南市,TNN10350,8,協成社區,23.02452000000001,120.19163
87472,20211201,202110,台南市,TNN10351,8,中華社區,23.02722,120.19105
87473,20211201,202110,台南市,TNN10352,8,海東橋,23.03077,120.19035
87474,20211201,202110,台南市,TNN10353,8,理想社區,23.03294,120.19001000000002
87475,20211201,202110,台南市,TNN10354,8,同安路口,23.03842,120.18824
87476,20211201,202110,台南市,TNN10355,8,海尾前,23.03602,120.18893
87477,20211201,202110,台南市,TNN10356,8,海東里,23.04023,120.18775
87478,20211201,202110,台南市,TNN10357,8,南海尾,23.04245,120.18712
87479,20211201,202110,台南市,TNN10358,8,溪心里,23.04511,120.18558
87480,20211201,202110,台南市,TNN10359,8,安中路三段,23.04728,120.18359
87481,20211201,202110,台南市,TNN10360,8,稅務局安南分局,23.04782,120.18111
87482,20211201,202110,台南市,TNN10361,8,安南國中,23.04843,120.17791
87483,20211201,202110,台南市,TNN10362,8,南鹽行,23.03785,120.23301
87484,20211201,202110,台南市,TNN10363,8,洲仔尾,23.03611,120.23111000000002
87485,20211201,202110,台南市,TNN10364,8,愛買量販,23.03418,120.22917
87486,20211201,202110,台南市,TNN10365,8,大崎(家樂福中正店),23.03198,120.22697
87487,20211201,202110,台南市,TNN10366,8,南大崎,23.02908,120.22395
87488,20211201,202110,台南市,TNN10367,8,尚頂里,23.02762,120.22237
87489,20211201,202110,台南市,TNN10368,8,中正南路,23.02613,120.22077
87490,20211201,202110,台南市,TNN10370,8,奇美醫院,23.02096,120.22168
87491,20211201,202110,台南市,TNN10371,8,大橋,23.01772,120.22735
87492,20211201,202110,台南市,TNN10372,8,臺南高工,23.01375,120.23048
87493,20211201,202110,台南市,TNN10373,8,南工宿舍,23.01317,120.22947
87494,20211201,202110,台南市,TNN10374,8,崑山中學,23.01095,120.22572
87495,20211201,202110,台南市,TNN10375,8,開元,23.00892,120.22287
87496,20211201,202110,台南市,TNN10376,8,富台新村,23.00808,120.22133
87497,20211201,202110,台南市,TNN10377,8,中樓,23.00699,120.21908
87498,20211201,202110,台南市,TNN10378,8,勝利北路,23.00445,120.21893
87499,20211201,202110,台南市,TNN10379,8,成大醫院(勝利路),23.00263,120.21875
87500,20211201,202110,台南市,TNN10381,8,小東路,23.00142,120.21595
87501,20211201,202110,台南市,TNN10382,8,臺南公園(北門路),23.00113,120.21293
87502,20211201,202110,台南市,TNN10383,8,臺南火車站(北站),22.99751,120.21124
87503,20211201,202110,台南市,TNN10384,8,南區健保局,22.99708,120.20641
87504,20211201,202110,台南市,TNN10385,8,民族路,22.99603,120.20501000000002
87505,20211201,202110,台南市,TNN10386,8,赤崁樓,22.99677,120.20261
87506,20211201,202110,台南市,TNN10387,8,西門、民權路口,22.99583,120.19951
87507,20211201,202110,台南市,TNN10388,8,西門、友愛街口,22.99224,120.19834
87508,20211201,202110,台南市,TNN10389,8,小西門(大億麗緻),22.98853,120.19753
87509,20211201,202110,台南市,TNN10390,8,新光三越新天地,22.98661,120.19748
87510,20211201,202110,台南市,TNN10391,8,西門路一段,22.98445,120.19752
87511,20211201,202110,台南市,TNN10392,8,台南站,22.98237,120.19759
87512,20211201,202110,台南市,TNN10393,8,家齊高中,22.98137,120.20127
87513,20211201,202110,台南市,TNN10394,8,臺南高商,22.98135,120.20322
87514,20211201,202110,台南市,TNN10395,8,體育公園(臺南大學),22.98131,120.20641
87515,20211201,202110,台南市,TNN10396,8,竹溪寺(健康路),22.98122,120.20987
87516,20211201,202110,台南市,TNN10397,8,南台南,22.98012,120.21271000000002
87517,20211201,202110,台南市,TNN10398,8,大林新城,22.97731,120.21365
87518,20211201,202110,台南市,TNN10399,8,忠孝新村,22.97577,120.21405
87519,20211201,202110,台南市,TNN10400,8,大林,22.973370000000006,120.21451
87520,20211201,202110,台南市,TNN10401,8,亞伯大飯店,22.96827,120.21548
87521,20211201,202110,台南市,TNN10402,8,生產路口,22.96512,120.21613
87522,20211201,202110,台南市,TNN10403,8,龍寶路口,22.961170000000006,120.21687
87523,20211201,202110,台南市,TNN10404,8,仁愛里國泰社區,22.95406,120.21767
87524,20211201,202110,台南市,TNN10405,8,仁愛里國泰社區,22.95371,120.21791
87525,20211201,202110,台南市,TNN10406,8,大同、機場路口,22.96128,120.21708999999998
87526,20211201,202110,台南市,TNN10407,8,生產路口,22.96552,120.21649
87527,20211201,202110,台南市,TNN10408,8,亞伯大飯店,22.96824,120.21587
87528,20211201,202110,台南市,TNN10409,8,大林,22.97326,120.21473
87529,20211201,202110,台南市,TNN10410,8,忠孝新村,22.97532,120.21421
87530,20211201,202110,台南市,TNN10411,8,大林新城,22.97837,120.21345
87531,20211201,202110,台南市,TNN10412,8,南台南,22.98018,120.21268
87532,20211201,202110,台南市,TNN10413,8,竹溪寺(健康路),22.98121,120.21071
87533,20211201,202110,台南市,TNN10414,8,體育公園(臺南大學),22.98142,120.20582
87534,20211201,202110,台南市,TNN10415,8,臺南高商,22.98144,120.20311
87535,20211201,202110,台南市,TNN10416,8,家齊高中,22.98142,120.20113
87536,20211201,202110,台南市,TNN10417,8,台南站,22.98206,120.19775
87537,20211201,202110,台南市,TNN10418,8,西門路一段,22.98407000000001,120.19762
87538,20211201,202110,台南市,TNN10419,8,新光三越新天地,22.98695,120.19774
87539,20211201,202110,台南市,TNN10420,8,小西門(大億麗緻),22.98849,120.19763
87540,20211201,202110,台南市,TNN10421,8,西門、友愛街口,22.99113,120.19817
87541,20211201,202110,台南市,TNN10422,8,西門、民權路口,22.99497,120.19939
87542,20211201,202110,台南市,TNN10423,8,赤崁樓,22.99691,120.20227
87543,20211201,202110,台南市,TNN10425,8,南區健保局,22.99744,120.20677
87544,20211201,202110,台南市,TNN10426,8,臺南火車站(南站),22.99703,120.21113
87545,20211201,202110,台南市,TNN10427,8,臺南公園(北門路),23.00038,120.21292
87546,20211201,202110,台南市,TNN10428,8,小東路,23.00115,120.21568
87547,20211201,202110,台南市,TNN10430,8,成大醫院(勝利路),23.00277,120.21871000000002
87548,20211201,202110,台南市,TNN10431,8,勝利北路,23.00467,120.21892
87549,20211201,202110,台南市,TNN10432,8,中樓,23.00709,120.21961
87550,20211201,202110,台南市,TNN10433,8,富台新村,23.00791,120.22141
87551,20211201,202110,台南市,TNN10434,8,開元,23.00918,120.22348
87552,20211201,202110,台南市,TNN10435,8,崑山中學,23.01162,120.22681
87553,20211201,202110,台南市,TNN10436,8,南工宿舍,23.01291,120.22921
87554,20211201,202110,台南市,TNN10437,8,臺南高工,23.01421,120.23041
87555,20211201,202110,台南市,TNN10438,8,大橋,23.01849,120.22678
87556,20211201,202110,台南市,TNN10439,8,奇美醫院,23.02155,120.22156
87557,20211201,202110,台南市,TNN10440,8,台電配電中心,23.02479,120.21941
87558,20211201,202110,台南市,TNN10441,8,中正南路,23.02603,120.22097
87559,20211201,202110,台南市,TNN10442,8,尚頂里,23.02772,120.22271
87560,20211201,202110,台南市,TNN10443,8,南大崎,23.02966,120.22491
87561,20211201,202110,台南市,TNN10444,8,大崎(家樂福中正店),23.03291,120.22826
87562,20211201,202110,台南市,TNN10445,8,愛買量販,23.03501,120.23016
87563,20211201,202110,台南市,TNN10446,8,洲仔尾,23.03601,120.23126
87564,20211201,202110,台南市,TNN10447,8,南鹽行,23.03828,120.23378999999998
87565,20211201,202110,台南市,TNN10448,8,慈幼工商,22.98904,120.23925
87566,20211201,202110,台南市,TNN10449,8,後甲,22.98863,120.23613
87567,20211201,202110,台南市,TNN10450,8,南紡購物中心(裕農路),22.98834,120.23248
87568,20211201,202110,台南市,TNN10451,8,聖大市場,22.98715,120.22984
87569,20211201,202110,台南市,TNN10452,8,妙善寺,22.98622,120.22781
87570,20211201,202110,台南市,TNN10453,8,裕農路,22.98546,120.22582
87571,20211201,202110,台南市,TNN10454,8,衛生局,22.98514,120.22325
87572,20211201,202110,台南市,TNN10455,8,東門國宅,22.98677,120.22296
87573,20211201,202110,台南市,TNN10456,8,崇誨新村,22.98957,120.22408
87574,20211201,202110,台南市,TNN10457,8,東寧社區,22.99176,120.22241
87575,20211201,202110,台南市,TNN10458,8,成功新村,22.99224,120.21975
87576,20211201,202110,台南市,TNN10459,8,臺南一中,22.99255,120.21802
87577,20211201,202110,台南市,TNN10460,8,成大會館,22.99576,120.21822
87578,20211201,202110,台南市,TNN10461,8,勝利路,22.99899,120.21851
87579,20211201,202110,台南市,TNN10462,8,成功大學,23.00106,120.21803
87580,20211201,202110,台南市,TNN10463,8,小東路,23.00128,120.21595
87581,20211201,202110,台南市,TNN10464,8,臺南公園(北門路),23.00113,120.21293
87582,20211201,202110,台南市,TNN10465,8,臺南火車站(北站),22.99768,120.21146
87583,20211201,202110,台南市,TNN10466,8,台南醫院,22.99538,120.20931000000002
87584,20211201,202110,台南市,TNN10467,8,中山、民權路口,22.99398,120.20709
87585,20211201,202110,台南市,TNN10468,8,開山路,22.99095,120.20621
87586,20211201,202110,台南市,TNN10469,8,延平郡王祠(府前路),22.98903,120.20608
87587,20211201,202110,台南市,TNN10470,8,臺南市美術館2館,22.98971,120.20163
87588,20211201,202110,台南市,TNN10471,8,府前路,22.99024,120.19944
87589,20211201,202110,台南市,TNN10472,8,康樂街口,22.99134,120.19387
87590,20211201,202110,台南市,TNN10473,8,南華街口,22.99169,120.19222
87591,20211201,202110,台南市,TNN10474,8,生活美學館,22.99251,120.18787
87592,20211201,202110,台南市,TNN10475,8,永華市政中心(府前路),22.99316,120.18453
87593,20211201,202110,台南市,TNN10476,8,家樂福,22.98886,120.18761
87594,20211201,202110,台南市,TNN10477,8,文南路口,22.98862,120.18962
87595,20211201,202110,台南市,TNN10478,8,水萍塭公園(金華路),22.98685,120.19196
87596,20211201,202110,台南市,TNN10479,8,文南、廣州里,22.98407000000001,120.19166
87597,20211201,202110,台南市,TNN10480,8,金華派出所,22.98088,120.19157
87598,20211201,202110,台南市,TNN10481,8,國宅北,22.97823,120.19118
87599,20211201,202110,台南市,TNN10482,8,新興路口,22.97553,120.19099
87600,20211201,202110,台南市,TNN10483,8,鹽埕國宅,22.97521,120.18999
87601,20211201,202110,台南市,TNN10484,8,明和公園,22.97466,120.18635
87602,20211201,202110,台南市,TNN10485,8,新建北站,22.97341,120.18531000000002
87603,20211201,202110,台南市,TNN10486,8,新建路,22.97093,120.18527
87604,20211201,202110,台南市,TNN10487,8,新建南站,22.96795,120.18526
87605,20211201,202110,台南市,TNN10488,8,開南里,22.96635,120.18529
87606,20211201,202110,台南市,TNN10489,8,永華國小,22.96424,120.18531000000002
87607,20211201,202110,台南市,TNN10490,8,新興國宅,22.96174,120.18736
87608,20211201,202110,台南市,TNN10491,8,中華南路二段,22.96177,120.18564
87609,20211201,202110,台南市,TNN10492,8,清水路,22.96011,120.17872
87610,20211201,202110,台南市,TNN10493,8,四鯤鯓,22.95924,120.17161000000002
87611,20211201,202110,台南市,TNN10495,8,鯤鯓社區,22.96024,120.17019
87612,20211201,202110,台南市,TNN10496,8,四鯤鯓,22.95907,120.17177
87613,20211201,202110,台南市,TNN10497,8,清水路,22.95968,120.17834
87614,20211201,202110,台南市,TNN10498,8,中華南路二段,22.96171,120.18563
87615,20211201,202110,台南市,TNN10499,8,永華國小,22.96425,120.18531000000002
87616,20211201,202110,台南市,TNN10500,8,開南里,22.96639,120.18538999999998
87617,20211201,202110,台南市,TNN10501,8,新建南站,22.96826,120.18541
87618,20211201,202110,台南市,TNN10502,8,新建路,22.97077,120.18541
87619,20211201,202110,台南市,TNN10503,8,新建北站,22.97328,120.18538999999998
87620,20211201,202110,台南市,TNN10504,8,明和公園,22.97456,120.18665
87621,20211201,202110,台南市,TNN10505,8,鹽埕國宅,22.97501,120.18975
87622,20211201,202110,台南市,TNN10506,8,新興路口,22.97606,120.19118
87623,20211201,202110,台南市,TNN10507,8,國宅北,22.97801,120.19135
87624,20211201,202110,台南市,TNN10508,8,金華派出所,22.98121,120.19156
87625,20211201,202110,台南市,TNN10509,8,文南、廣州里,22.98317,120.19161
87626,20211201,202110,台南市,TNN10510,8,水萍塭公園(金華路),22.98751,120.19204
87627,20211201,202110,台南市,TNN10511,8,文南路口,22.98864,120.18975
87628,20211201,202110,台南市,TNN10512,8,家樂福,22.98899,120.18763
87629,20211201,202110,台南市,TNN10513,8,永華市政中心(府前路),22.99308,120.18443
87630,20211201,202110,台南市,TNN10514,8,生活美學館,22.99241,120.18763
87631,20211201,202110,台南市,TNN10515,8,南華街口,22.99162,120.19221
87632,20211201,202110,台南市,TNN10516,8,康樂街口,22.99125,120.19381
87633,20211201,202110,台南市,TNN10517,8,府前路,22.99018,120.19873
87634,20211201,202110,台南市,TNN10518,8,臺南市美術館2館,22.98971,120.20112
87635,20211201,202110,台南市,TNN10519,8,延平郡王祠(府前路),22.98891,120.20698
87636,20211201,202110,台南市,TNN10520,8,開山路,22.99057,120.20657
87637,20211201,202110,台南市,TNN10522,8,中山、民權路口,22.99375,120.20709
87638,20211201,202110,台南市,TNN10523,8,台南醫院,22.99528,120.20937
87639,20211201,202110,台南市,TNN10524,8,臺南火車站(南站),22.99721,120.21124
87640,20211201,202110,台南市,TNN10525,8,臺南公園(北門路),23.00038,120.21292
87641,20211201,202110,台南市,TNN10526,8,小東路,23.00115,120.21568
87642,20211201,202110,台南市,TNN10527,8,成功大學,23.00094,120.21791
87643,20211201,202110,台南市,TNN10528,8,勝利路,22.99853,120.21818
87644,20211201,202110,台南市,TNN10529,8,成大會館,22.99564,120.21801
87645,20211201,202110,台南市,TNN10530,8,臺南一中,22.99265,120.21786000000002
87646,20211201,202110,台南市,TNN10531,8,成功新村,22.99201,120.22026
87647,20211201,202110,台南市,TNN10532,8,東寧社區,22.99163,120.22248
87648,20211201,202110,台南市,TNN10533,8,崇誨新村,22.99061,120.22411
87649,20211201,202110,台南市,TNN10534,8,東門國宅,22.98618,120.22254
87650,20211201,202110,台南市,TNN10535,8,衛生局,22.98518,120.22316
87651,20211201,202110,台南市,TNN10536,8,裕農路,22.98545,120.22617
87652,20211201,202110,台南市,TNN10537,8,妙善寺,22.98637,120.22821
87653,20211201,202110,台南市,TNN10538,8,聖大市場,22.98688,120.22948
87654,20211201,202110,台南市,TNN10539,8,南紡購物中心(裕農路),22.98781,120.23171
87655,20211201,202110,台南市,TNN10540,8,後甲,22.98853,120.23602
87656,20211201,202110,台南市,TNN10541,8,台南醫院,22.99538,120.20931000000002
87657,20211201,202110,台南市,TNN10542,8,中山、民權路口,22.99398,120.20709
87658,20211201,202110,台南市,TNN10543,8,林百貨(中正路),22.99205,120.20221
87659,20211201,202110,台南市,TNN10544,8,中正、西門路口,22.99261,120.19981
87660,20211201,202110,台南市,TNN10545,8,西門、民權路口,22.99497,120.19939
87661,20211201,202110,台南市,TNN10546,8,西門路三段口,22.99912,120.20101
87662,20211201,202110,台南市,TNN10547,8,立人國小,23.00153,120.20265
87663,20211201,202110,台南市,TNN10548,8,民德路口,23.00322,120.20411
87664,20211201,202110,台南市,TNN10549,8,民德國中,23.00501,120.20542
87665,20211201,202110,台南市,TNN10550,8,西門路四段,23.00952,120.20794
87666,20211201,202110,台南市,TNN10551,8,六甲里西,23.01208,120.20898
87667,20211201,202110,台南市,TNN10552,8,國際城,23.01403,120.20956
87668,20211201,202110,台南市,TNN10553,8,鄭子寮,23.01701,120.20971000000002
87669,20211201,202110,台南市,TNN10554,8,福安宮,23.02007,120.20633
87670,20211201,202110,台南市,TNN10555,8,聖安街口,23.02698,120.20517
87671,20211201,202110,台南市,TNN10556,8,安通路口,23.03042,120.20471
87672,20211201,202110,台南市,TNN10557,8,安中路口,23.03783,120.20271
87673,20211201,202110,台南市,TNN10558,8,安中路一段,23.03973,120.20142
87674,20211201,202110,台南市,TNN10559,8,草湖寮,23.04162,120.19821
87675,20211201,202110,台南市,TNN10560,8,和順國宅,23.04212,120.19728
87676,20211201,202110,台南市,TNN10561,8,埤圳邊,23.04449,120.19313
87677,20211201,202110,台南市,TNN10562,8,安中、安吉路口,23.04608,120.18928
87678,20211201,202110,台南市,TNN10563,8,安南區公所,23.04708,120.18458
87679,20211201,202110,台南市,TNN10564,8,安中路三段,23.04728,120.18359
87680,20211201,202110,台南市,TNN10565,8,稅務局安南分局,23.04782,120.18111
87681,20211201,202110,台南市,TNN10566,8,安南國中,23.04871,120.17722
87682,20211201,202110,台南市,TNN10567,8,海東國小,23.04888,120.17569
87683,20211201,202110,台南市,TNN10568,8,安南衛生所,23.05005,120.17594
87684,20211201,202110,台南市,TNN10569,8,仁安路,23.05138,120.17865
87685,20211201,202110,台南市,TNN10570,8,海佃路四段,23.05418,120.17784
87686,20211201,202110,台南市,TNN10571,8,佃東里,23.06548,120.17632
87687,20211201,202110,台南市,TNN10572,8,十二佃,23.06257,120.17628
87688,20211201,202110,台南市,TNN10573,8,十二佃神榕前,23.06691,120.17591000000002
87689,20211201,202110,台南市,TNN10574,8,南天宮,23.066370000000006,120.17523
87690,20211201,202110,台南市,TNN10575,8,十二佃橋,23.06502,120.17237
87691,20211201,202110,台南市,TNN10576,8,公學路四段,23.06616,120.16958
87692,20211201,202110,台南市,TNN10577,8,新吉庄,23.06812,120.16817
87693,20211201,202110,台南市,TNN10578,8,育英街北,23.06465,120.16031
87694,20211201,202110,台南市,TNN10579,8,育英街,23.06207,120.15745
87695,20211201,202110,台南市,TNN10581,8,康寧大學,23.05925,120.15385
87696,20211201,202110,台南市,TNN10582,8,康寧大學,23.05928,120.15398
87697,20211201,202110,台南市,TNN10584,8,育英街,23.06203,120.15752
87698,20211201,202110,台南市,TNN10585,8,育英街北,23.06442,120.16031
87699,20211201,202110,台南市,TNN10586,8,新吉庄,23.06821,120.16792
87700,20211201,202110,台南市,TNN10587,8,公學路四段,23.06617,120.16952
87701,20211201,202110,台南市,TNN10588,8,十二佃橋,23.06482,120.17245
87702,20211201,202110,台南市,TNN10589,8,南天宮,23.06621,120.17537
87703,20211201,202110,台南市,TNN10590,8,十二佃神榕前,23.06698,120.17624
87704,20211201,202110,台南市,TNN10591,8,十二佃,23.062520000000006,120.17612
87705,20211201,202110,台南市,TNN10592,8,佃東里,23.06548,120.17632
87706,20211201,202110,台南市,TNN10593,8,海佃路四段,23.05418,120.17782
87707,20211201,202110,台南市,TNN10594,8,仁安路,23.05137,120.17862
87708,20211201,202110,台南市,TNN10595,8,安南衛生所,23.04978,120.17551
87709,20211201,202110,台南市,TNN10596,8,海東國小,23.04889,120.17531
87710,20211201,202110,台南市,TNN10597,8,安南國中,23.04815,120.17842
87711,20211201,202110,台南市,TNN10598,8,稅務局安南分局,23.04767,120.18087
87712,20211201,202110,台南市,TNN10599,8,安中路三段,23.04731,120.18269
87713,20211201,202110,台南市,TNN10600,8,安南區公所,23.04675,120.18545
87714,20211201,202110,台南市,TNN10601,8,安中、安吉路口,23.04593,120.18947
87715,20211201,202110,台南市,TNN10602,8,埤圳邊,23.04456,120.19291
87716,20211201,202110,台南市,TNN10603,8,和順國宅,23.04267,120.19613
87717,20211201,202110,台南市,TNN10604,8,草湖寮,23.04162,120.19801
87718,20211201,202110,台南市,TNN10605,8,安中路一段,23.03946,120.20158
87719,20211201,202110,台南市,TNN10606,8,安中路口,23.03758,120.20258
87720,20211201,202110,台南市,TNN10607,8,安通路口,23.03155,120.20428
87721,20211201,202110,台南市,TNN10608,8,聖安街口,23.02698,120.20493
87722,20211201,202110,台南市,TNN10609,8,福安宮,23.02003,120.20611
87723,20211201,202110,台南市,TNN10610,8,鄭子寮,23.01647,120.21028
87724,20211201,202110,台南市,TNN10611,8,國際城,23.01501,120.20988
87725,20211201,202110,台南市,TNN10612,8,六甲里西,23.01255,120.20901
87726,20211201,202110,台南市,TNN10613,8,西門路四段,23.00957,120.20781
87727,20211201,202110,台南市,TNN10614,8,民德國中,23.00495,120.20504
87728,20211201,202110,台南市,TNN10615,8,民德路口,23.00322,120.20377
87729,20211201,202110,台南市,TNN10616,8,立人國小,23.00095,120.20203
87730,20211201,202110,台南市,TNN10617,8,西門路三段口,22.99902,120.20082
87731,20211201,202110,台南市,TNN10618,8,西門、民權路口,22.99583,120.19951
87732,20211201,202110,台南市,TNN10619,8,中正、西門路口,22.99247,120.19959
87733,20211201,202110,台南市,TNN10620,8,林百貨(中正路),22.99202,120.20172
87734,20211201,202110,台南市,TNN10621,8,中山、民權路口,22.99375,120.20709
87735,20211201,202110,台南市,TNN10622,8,台南醫院,22.99528,120.20937
87736,20211201,202110,台南市,TNN10623,8,公園南路,23.00074,120.21017
87737,20211201,202110,台南市,TNN10624,8,臺南轉運站,23.00187,120.20928
87738,20211201,202110,台南市,TNN10625,8,寮內,23.00642,120.21023
87739,20211201,202110,台南市,TNN10626,8,延平國中,23.01028,120.21077
87740,20211201,202110,台南市,TNN10627,8,延平市場(公園路),23.01379,120.21241
87741,20211201,202110,台南市,TNN10628,8,正風里,23.015220000000006,120.21358
87742,20211201,202110,台南市,TNN10629,8,正覺里,23.01784,120.21569
87743,20211201,202110,台南市,TNN10630,8,六甲頂,23.01999,120.21621
87744,20211201,202110,台南市,TNN10631,8,溪頂寮橋,23.02674,120.21515
87745,20211201,202110,台南市,TNN10632,8,南安順,23.02831,120.21454
87746,20211201,202110,台南市,TNN10633,8,安順派出所,23.03047,120.21318
87747,20211201,202110,台南市,TNN10634,8,安順市場,23.03275,120.21238999999998
87748,20211201,202110,台南市,TNN10635,8,瀛海中學,23.03526,120.21095
87749,20211201,202110,台南市,TNN10636,8,長溪路一段,23.03675,120.20966
87750,20211201,202110,台南市,TNN10637,8,安慶里,23.03921,120.20691
87751,20211201,202110,台南市,TNN10638,8,北頂安,23.04176,120.20417
87752,20211201,202110,台南市,TNN10639,8,怡安路口,23.04465,120.20381
87753,20211201,202110,台南市,TNN10640,8,南總頭寮,23.04824,120.20329
87754,20211201,202110,台南市,TNN10641,8,總頭寮,23.05547,120.20221
87755,20211201,202110,台南市,TNN10642,8,社尾,23.05737,120.20161
87756,20211201,202110,台南市,TNN10643,8,長安國小,23.06565,120.19783
87757,20211201,202110,台南市,TNN10644,8,新寮,23.06884,120.19566
87758,20211201,202110,台南市,TNN10645,8,北長安,23.07188,120.19751
87759,20211201,202110,台南市,TNN10646,8,公親里活動中心,23.07731,120.19981
87760,20211201,202110,台南市,TNN10647,8,公學路一段,23.07707000000001,120.20332
87761,20211201,202110,台南市,TNN10648,8,公學路一段,23.07707000000001,120.20329
87762,20211201,202110,台南市,TNN10649,8,公親里活動中心,23.07682,120.19917
87763,20211201,202110,台南市,TNN10650,8,北長安,23.07151,120.19714
87764,20211201,202110,台南市,TNN10651,8,新寮,23.06841,120.19587
87765,20211201,202110,台南市,TNN10652,8,長安國小,23.06541,120.19781
87766,20211201,202110,台南市,TNN10653,8,社尾,23.05716,120.20152
87767,20211201,202110,台南市,TNN10654,8,總頭寮,23.05556,120.20207
87768,20211201,202110,台南市,TNN10655,8,南總頭寮,23.04813,120.20323
87769,20211201,202110,台南市,TNN10656,8,怡安路口,23.04421,120.20378
87770,20211201,202110,台南市,TNN10657,8,北頂安,23.04186,120.20415
87771,20211201,202110,台南市,TNN10658,8,安慶里,23.03906,120.20677
87772,20211201,202110,台南市,TNN10659,8,長溪路一段,23.03681,120.20941
87773,20211201,202110,台南市,TNN10660,8,瀛海中學,23.03527,120.21095
87774,20211201,202110,台南市,TNN10661,8,安順市場,23.03276,120.21249
87775,20211201,202110,台南市,TNN10662,8,安順派出所,23.03048,120.21312
87776,20211201,202110,台南市,TNN10663,8,南安順,23.02813,120.21451
87777,20211201,202110,台南市,TNN10664,8,溪頂寮橋,23.02683,120.21501
87778,20211201,202110,台南市,TNN10665,8,六甲頂,23.01997,120.21609
87779,20211201,202110,台南市,TNN10666,8,正覺里,23.01731,120.21511
87780,20211201,202110,台南市,TNN10667,8,正風里,23.01511,120.21331
87781,20211201,202110,台南市,TNN10668,8,延平市場(公園路),23.01305,120.21172
87782,20211201,202110,台南市,TNN10669,8,延平國中,23.01048,120.21062
87783,20211201,202110,台南市,TNN10670,8,寮內,23.00577,120.21034
87784,20211201,202110,台南市,TNN10671,8,臺南轉運站,23.00171,120.20908
87785,20211201,202110,台南市,TNN10672,8,公園南路,23.00084,120.20972
87786,20211201,202110,台南市,TNN10673,8,裕平路,22.98494,120.24083
87787,20211201,202110,台南市,TNN10700,8,城西里,23.05715,120.09554
87788,20211201,202110,台南市,TNN10701,8,媽祖宮,23.03831,120.12676
87789,20211201,202110,台南市,TNN10702,8,顯宮派出所,23.03981,120.12961
87790,20211201,202110,台南市,TNN10706,8,建興國中(府前路),22.98923,120.20423999999998
87791,20211201,202110,台南市,TNN10707,8,建興國中(府前路),22.98926,120.20344
87792,20211201,202110,台南市,TNN10760,8,同安宮,22.92515,120.18537
87793,20211201,202110,台南市,TNN10761,8,同安宮,22.92525,120.18547
87794,20211201,202110,台南市,TNN10762,8,公園北路口,23.00412,120.21063999999998
87795,20211201,202110,台南市,TNN10763,8,公園北路口,23.00433,120.21062
87796,20211201,202110,台南市,TNN10764,8,無障礙福利之家,23.00046,120.22543
87797,20211201,202110,台南市,TNN10765,8,無障礙福利之家,23.00046,120.22543
87798,20211201,202110,台南市,TNN10770,8,慈幼工商,22.98885,120.23886
87799,20211201,202110,台南市,TNN10771,8,裕農三街,22.98574,120.23956
87800,20211201,202110,台南市,TNN10772,8,公園北路口,23.00401,120.21046
87801,20211201,202110,台南市,TNN10773,8,公園北路口,23.00401,120.21046
87802,20211201,202110,台南市,TNN10774,8,四草生態文化園區(大眾廟),23.01928,120.13471
87803,20211201,202110,台南市,TNN10775,8,大社角,23.01817,120.13101
87804,20211201,202110,台南市,TNN10776,8,四草,23.01699,120.12862
87805,20211201,202110,台南市,TNN10777,8,崙仔角,23.01844,120.12657
87806,20211201,202110,台南市,TNN10778,8,四草路口,23.02014,120.12489
87807,20211201,202110,台南市,TNN10803,8,鯤鯓社區,22.96026,120.17015
87808,20211201,202110,台南市,TNN10810,8,建成市場,23.00884,120.21023
87809,20211201,202110,台南市,TNN10811,8,建成市場,23.00934,120.21033
87810,20211201,202110,台南市,TNN10812,8,建成市場,23.00884,120.21023
87811,20211201,202110,台南市,TNN10813,8,建成市場,23.00934,120.21033
87812,20211201,202110,台南市,TNN10815,8,望月橋,22.99821,120.17493
87813,20211201,202110,台南市,TNN10816,8,望月橋,22.99807,120.17509
87814,20211201,202110,台南市,TNN10817,8,情人碼頭,22.88054,120.21101000000002
87815,20211201,202110,台南市,TNN10818,8,情人碼頭,22.88083,120.21126
87816,20211201,202110,台南市,TNN10820,8,石門國小,22.99947,120.16574
87817,20211201,202110,台南市,TNN10821,8,億載國小,22.98961,120.16293
87818,20211201,202110,台南市,TNN10823,8,三鯤鯓,22.97703,120.16141
87819,20211201,202110,台南市,TNN10824,8,延平街,23.00058,120.16434
87820,20211201,202110,台南市,TNN10825,8,億載國小,22.98951,120.16256
87821,20211201,202110,台南市,TNN10830,8,海佃路一段,23.02561,120.19123
87822,20211201,202110,台南市,TNN10860,8,北安橋,23.03594,120.21371
87823,20211201,202110,台南市,TNN10861,8,北安橋,23.03558,120.21336
87824,20211201,202110,台南市,TNN10882,8,安昌街口,23.06979,120.21923
87825,20211201,202110,台南市,TNN10950,8,四草野生動物保護區,23.02668,120.13742
87826,20211201,202110,台南市,TNN10951,8,鹿耳門橋,23.03661,120.12832
87827,20211201,202110,台南市,TNN10961,8,鹿耳門橋,23.03661,120.12794
87828,20211201,202110,台南市,TNN10962,8,四草路口,23.02008,120.12487
87829,20211201,202110,台南市,TNN10963,8,崙仔角,23.01822,120.12676
87830,20211201,202110,台南市,TNN10964,8,四草,23.01712,120.12872
87831,20211201,202110,台南市,TNN10965,8,大社角,23.01796,120.13091
87832,20211201,202110,台南市,TNN10966,8,四草生態文化園區(大眾廟),23.01924,120.13473
87833,20211201,202110,台南市,TNN10967,8,四草野生動物保護區,23.02644,120.13743999999998
87834,20211201,202110,台南市,TNN10970,8,竹篙厝,22.96469,120.23431
87835,20211201,202110,台南市,TNN10975,8,竹篙厝北,22.96835,120.23489
87836,20211201,202110,台南市,TNN10978,8,竹篙厝仁和宮,22.96806,120.23569
87837,20211201,202110,台南市,TNN10980,8,竹篙厝,22.96469,120.23431
87838,20211201,202110,台南市,TNN11010,8,小西門(大億麗緻),22.98883,120.19752
87839,20211201,202110,台南市,TNN11011,8,延平郡王祠(國立臺南大學),22.98753,120.20875
87840,20211201,202110,台南市,TNN11012,8,永華市政中心(府前路),22.99307,120.18442
87841,20211201,202110,台南市,TNN11013,8,大林新城,22.97731,120.21365
87842,20211201,202110,台南市,TNN11014,8,生產路口,22.96514,120.21629
87843,20211201,202110,台南市,TNN11015,8,奇美博物館,22.93496,120.22088
87844,20211201,202110,台南市,TNN11016,8,高鐵台南站,22.92401,120.28587
87845,20211201,202110,台南市,TNN11017,8,高鐵台南站,22.92395,120.28579
87846,20211201,202110,台南市,TNN11018,8,奇美博物館,22.93502,120.22114
87847,20211201,202110,台南市,TNN11019,8,生產路口,22.96545,120.21643
87848,20211201,202110,台南市,TNN11020,8,市政中心(永華路),22.98942000000001,120.18489
87849,20211201,202110,台南市,TNN11022,8,大林新城,22.978620000000006,120.21339
87850,20211201,202110,台南市,TNN11023,8,永華市政中心(府前路),22.99307,120.18442
87851,20211201,202110,台南市,TNN11024,8,延平郡王祠(國立臺南大學),22.98763,120.20881
87852,20211201,202110,台南市,TNN11025,8,小西門(大億麗緻),22.98812,120.19741
87853,20211201,202110,台南市,TNN11060,8,奇美醫院,23.02096,120.22168
87854,20211201,202110,台南市,TNN11061,8,兵仔市,23.00397,120.23514
87855,20211201,202110,台南市,TNN11062,8,中華東東門路口,22.98023,120.22876
87856,20211201,202110,台南市,TNN11063,8,仁德交流道,22.97339,120.24512
87857,20211201,202110,台南市,TNN11064,8,仁德,22.97151,120.25223
87858,20211201,202110,台南市,TNN11065,8,高鐵台南站,22.92401,120.28587
87859,20211201,202110,台南市,TNN11066,8,高鐵台南站,22.92395,120.28579
87860,20211201,202110,台南市,TNN11067,8,仁德,22.97161,120.25226
87861,20211201,202110,台南市,TNN11068,8,仁德交流道,22.97321,120.24618999999998
87862,20211201,202110,台南市,TNN11069,8,中華東東門路口,22.98038,120.22873
87863,20211201,202110,台南市,TNN11070,8,兵仔市,23.00329,120.23536
87864,20211201,202110,台南市,TNN11071,8,奇美醫院,23.02096,120.22168
87865,20211201,202110,台南市,TNN11074,8,成功橋,22.88932,120.18701
87866,20211201,202110,台南市,TNN11076,8,北崎漏,22.87921,120.18838999999998
87867,20211201,202110,台南市,TNN11077,8,崎漏,22.87757,120.18894
87868,20211201,202110,台南市,TNN11078,8,崎漏茄萣農會,22.87379,120.19147
87869,20211201,202110,台南市,TNN11079,8,崎漏電信局,22.87454,120.19386000000002
87870,20211201,202110,台南市,TNN11080,8,興達國小,22.87553,120.19717
87871,20211201,202110,台南市,TNN11081,8,興達港,22.87857,120.20412
87872,20211201,202110,台南市,TNN11082,8,假日市集,22.87944,120.21392
87873,20211201,202110,台南市,TNN11083,8,興達遠洋漁港,22.87682,120.21429
87874,20211201,202110,台南市,TNN11084,8,假日市集,22.87928,120.21423
87875,20211201,202110,台南市,TNN11085,8,興達港,22.87891,120.20404
87876,20211201,202110,台南市,TNN11086,8,興達國小,22.87566,120.19657
87877,20211201,202110,台南市,TNN11087,8,崎漏電信局,22.87481,120.19397
87878,20211201,202110,台南市,TNN11088,8,崎漏茄萣農會,22.87398,120.19134
87879,20211201,202110,台南市,TNN11089,8,崎漏,22.87763,120.18906
87880,20211201,202110,台南市,TNN11090,8,北崎漏,22.87944,120.18855
87881,20211201,202110,台南市,TNN11093,8,塭南里,23.06983,120.22072
87882,20211201,202110,台南市,TNN11098,8,興達遠洋漁港,22.87661,120.21395
87883,20211201,202110,台南市,TNN11099,8,和緯路一段,23.01033,120.21189
87884,20211201,202110,台南市,TNN11104,8,和緯路一段,23.01033,120.21189
87885,20211201,202110,台南市,TNN11105,8,成功國中,23.00952,120.21448
87886,20211201,202110,台南市,TNN11106,8,大道新城,23.01041,120.21615
87887,20211201,202110,台南市,TNN11107,8,大光國小,23.01224,120.21685
87888,20211201,202110,台南市,TNN11108,8,長榮路五段,23.01311,120.21463
87889,20211201,202110,台南市,TNN11109,8,長榮路五段,23.01311,120.21463
87890,20211201,202110,台南市,TNN11110,8,大光國小,23.01194,120.21659
87891,20211201,202110,台南市,TNN11111,8,大道新城,23.01039,120.21626
87892,20211201,202110,台南市,TNN11112,8,成功國中,23.00952,120.21448
87893,20211201,202110,台南市,TNN11119,8,本原街口,23.05092,120.20278
87894,20211201,202110,台南市,TNN11120,8,總安街口,23.05368,120.20231
87895,20211201,202110,台南市,TNN11121,8,總安街口,23.05371,120.20221
87896,20211201,202110,台南市,TNN11122,8,本原街口,23.05078,120.20272
87897,20211201,202110,台南市,TNN11133,8,空軍臺南基地,22.95142,120.21671
87898,20211201,202110,台南市,TNN11134,8,空軍臺南基地,22.95142,120.21671
87899,20211201,202110,台南市,TNN11135,8,台糖安南學苑,23.05751,120.15253
87900,20211201,202110,台南市,TNN11143,8,臺南航空站(奇美幸福工廠),22.94805,120.21682
87901,20211201,202110,台南市,TNN11144,8,公親里,23.07773,120.20675
87902,20211201,202110,台南市,TNN11145,8,鹿耳門天后宮,23.03682,120.12491
87903,20211201,202110,台南市,TNN11146,8,龍崗國小,22.96158,120.16962
87904,20211201,202110,台南市,TNN11165,8,鹽田路,23.03444,120.14761
87905,20211201,202110,台南市,TNN11166,8,紅樹林社區,23.03242,120.13958
87906,20211201,202110,台南市,TNN11167,8,鹽田路,23.03482,120.14799
87907,20211201,202110,台南市,TNN11168,8,紅樹林社區,23.03246,120.13815
87908,20211201,202110,台南市,TNN11174,8,新營站,23.30752,120.32217
87909,20211201,202110,台南市,TNN11175,8,中營興業里,23.30531,120.31872
87910,20211201,202110,台南市,TNN11176,8,圓環(第一銀行),23.30499,120.31644
87911,20211201,202110,台南市,TNN11177,8,新營文化中心,23.30791,120.31622
87912,20211201,202110,台南市,TNN11178,8,新營區公所,23.30987,120.31628
87913,20211201,202110,台南市,TNN11179,8,新營高工,23.31413,120.31664
87914,20211201,202110,台南市,TNN11180,8,中正世家,23.31691,120.31651
87915,20211201,202110,台南市,TNN11181,8,電力公司,23.31908,120.31635
87916,20211201,202110,台南市,TNN11182,8,許丑,23.32281,120.31627
87917,20211201,202110,台南市,TNN11183,8,埤寮,23.32988,120.31646
87918,20211201,202110,台南市,TNN11184,8,新港東,23.33929,120.32784
87919,20211201,202110,台南市,TNN11185,8,下長短樹,23.35526,120.33001000000002
87920,20211201,202110,台南市,TNN11186,8,頂長短樹,23.36675,120.33052
87921,20211201,202110,台南市,TNN11187,8,菁寮,23.37817,120.33594
87922,20211201,202110,台南市,TNN11188,8,菁寮國小,23.37859,120.33891
87923,20211201,202110,台南市,TNN11189,8,菁豐里,23.37638,120.34589
87924,20211201,202110,台南市,TNN11190,8,後壁區公所,23.36571,120.36221
87925,20211201,202110,台南市,TNN11191,8,後壁國小,23.36612,120.36686
87926,20211201,202110,台南市,TNN11192,8,大路墘,23.37138,120.37191
87927,20211201,202110,台南市,TNN11194,8,顯濟宮,23.38615,120.38151
87928,20211201,202110,台南市,TNN11195,8,永安國小,23.38298,120.38612
87929,20211201,202110,台南市,TNN11196,8,土溝里,23.37675,120.39251000000002
87930,20211201,202110,台南市,TNN11197,8,土溝鄉情客廳,23.37631,120.39254
87931,20211201,202110,台南市,TNN11198,8,土溝美術館,23.37421,120.38763
87932,20211201,202110,台南市,TNN11199,8,土溝代天府,23.37259,120.38508
87933,20211201,202110,台南市,TNN11200,8,土溝代天府,23.37259,120.38508
87934,20211201,202110,台南市,TNN11201,8,土溝美術館,23.37421,120.38763
87935,20211201,202110,台南市,TNN11202,8,土溝鄉情客廳,23.37631,120.39254
87936,20211201,202110,台南市,TNN11203,8,土溝里,23.37659,120.39257
87937,20211201,202110,台南市,TNN11204,8,永安國小,23.38289,120.38611000000002
87938,20211201,202110,台南市,TNN11205,8,顯濟宮,23.38605,120.38147
87939,20211201,202110,台南市,TNN11207,8,大路墘,23.37143,120.37192
87940,20211201,202110,台南市,TNN11208,8,後壁國小,23.36618,120.36676
87941,20211201,202110,台南市,TNN11209,8,後壁區公所,23.36578,120.36216
87942,20211201,202110,台南市,TNN11210,8,菁豐里,23.37646,120.34582
87943,20211201,202110,台南市,TNN11211,8,菁寮國小,23.37868,120.33887
87944,20211201,202110,台南市,TNN11212,8,新營文化中心,23.30901,120.31607
87945,20211201,202110,台南市,TNN11213,8,菁寮,23.37841,120.33588
87946,20211201,202110,台南市,TNN11214,8,頂長短樹,23.36696,120.33073
87947,20211201,202110,台南市,TNN11215,8,下長短樹,23.35519,120.32991
87948,20211201,202110,台南市,TNN11216,8,新港東,23.33953,120.32793999999998
87949,20211201,202110,台南市,TNN11217,8,埤寮,23.33016,120.31649
87950,20211201,202110,台南市,TNN11218,8,許丑,23.32281,120.31616
87951,20211201,202110,台南市,TNN11219,8,中正世家,23.31691,120.31635
87952,20211201,202110,台南市,TNN11220,8,新營區公所,23.31012,120.31622
87953,20211201,202110,台南市,TNN11221,8,圓環(第一銀行),23.30498,120.31653
87954,20211201,202110,台南市,TNN11222,8,中營興業里,23.30528,120.31899
87955,20211201,202110,台南市,TNN11223,8,電力公司,23.31908,120.31621
87956,20211201,202110,台南市,TNN11224,8,新營高工,23.31381,120.31661
87957,20211201,202110,台南市,TNN11225,8,新營站,23.30752,120.32217
87958,20211201,202110,台南市,TNN11266,8,保安轉運站,22.93261,120.23074
87959,20211201,202110,台南市,TNN11267,8,奇美博物館,22.93636,120.22891
87960,20211201,202110,台南市,TNN11268,8,十鼓文化村,22.93863,120.22902
87961,20211201,202110,台南市,TNN11269,8,臺南都會公園,22.93751,120.22281
87962,20211201,202110,台南市,TNN11270,8,家樂福新仁店,22.94692,120.21963999999998
87963,20211201,202110,台南市,TNN11271,8,臺南航空站(奇美幸福工廠),22.94825,120.21661
87964,20211201,202110,台南市,TNN11272,8,臺南都會公園,22.93735,120.22282
87965,20211201,202110,台南市,TNN11273,8,奇美博物館,22.93642,120.22887
87966,20211201,202110,台南市,TNN11274,8,保安轉運站,22.93298,120.23057
87967,20211201,202110,台南市,TNN13605,8,虎尾寮重劃區,22.98274,120.24168
87968,20211201,202110,台南市,TNN13606,8,裕聖公園,22.98142,120.24497
87969,20211201,202110,台南市,TNN13607,8,裕聖里,22.97989,120.24488999999998
87970,20211201,202110,台南市,TNN13608,8,裕農三街,22.98569,120.23965
87971,20211201,202110,台南市,TNN13609,8,裕平路,22.98502,120.24151
87972,20211201,202110,台南市,TNN13610,8,虎尾寮重劃區,22.98261,120.24181000000002
87973,20211201,202110,台南市,TNN13611,8,裕聖公園,22.98162,120.24515
87974,20211201,202110,台南市,TNN13701,8,公園北路,23.00519,120.20766
87975,20211201,202110,台南市,TNN13702,8,公園北路口,23.00401,120.21031
87976,20211201,202110,台南市,TNN13703,8,臺南轉運站,23.00179,120.20921
87977,20211201,202110,台南市,TNN13704,8,公園國小,23.00009,120.20812
87978,20211201,202110,台南市,TNN13705,8,成功路,22.99785,120.20839
87979,20211201,202110,台南市,TNN13706,8,臺南火車站(南站),22.99706,120.21119
87980,20211201,202110,台南市,TNN13707,8,臺南公園(北門路),23.00063,120.21308
87981,20211201,202110,台南市,TNN13708,8,台南二中,23.00367,120.21356000000002
87982,20211201,202110,台南市,TNN13709,8,開元國小,23.00619,120.21721
87983,20211201,202110,台南市,TNN13710,8,中樓,23.00709,120.21961
87984,20211201,202110,台南市,TNN13711,8,長榮路四段,23.00654,120.22161
87985,20211201,202110,台南市,TNN13712,8,長榮東豐路口,23.00307,120.22256000000002
87986,20211201,202110,台南市,TNN13713,8,長榮小東路口,23.00134,120.22231
87987,20211201,202110,台南市,TNN13714,8,成大自強校區,22.99831,120.22187
87988,20211201,202110,台南市,TNN13715,8,大學路口,22.99557,120.22185
87989,20211201,202110,台南市,TNN13716,8,長榮東寧路口,22.99247,120.22155
87990,20211201,202110,台南市,TNN13717,8,長榮女中,22.99085,120.22109
87991,20211201,202110,台南市,TNN13718,8,勝利國小,22.98754,120.21912
87992,20211201,202110,台南市,TNN13719,8,大東夜市,22.98375,120.21764
87993,20211201,202110,台南市,TNN13720,8,竹溪寺(健康路),22.98132,120.21065
87994,20211201,202110,台南市,TNN13721,8,體育公園(臺南大學),22.98141,120.20548
87995,20211201,202110,台南市,TNN13722,8,臺南高商,22.98144,120.20311
87996,20211201,202110,台南市,TNN13723,8,家齊高中,22.98142,120.20113
87997,20211201,202110,台南市,TNN13724,8,健康西門路口,22.98156,120.19725
87998,20211201,202110,台南市,TNN13725,8,夏林路五妃街口,22.98235,120.19521
87999,20211201,202110,台南市,TNN13726,8,客家文化會館,22.98586,120.19517
88000,20211201,202110,台南市,TNN13727,8,水萍塭公園,22.98801,120.19279
88001,20211201,202110,台南市,TNN13730,8,河樂廣場(金華路),22.99377,120.19343
88002,20211201,202110,台南市,TNN13731,8,協進國小(金華路),22.99747,120.19444
88003,20211201,202110,台南市,TNN13732,8,金華成功路口,23.00195,120.19633
88004,20211201,202110,台南市,TNN13733,8,臨安海安路口,23.00364,120.19932
88005,20211201,202110,台南市,TNN13734,8,大潤發,23.00466,120.20355
88006,20211201,202110,台南市,TNN13735,8,民德國中,23.00501,120.20542
88007,20211201,202110,台南市,TNN13736,8,臺南火車站(南站),22.99706,120.21119
88008,20211201,202110,台南市,TNN13737,8,公園北路,23.00523,120.20786
88009,20211201,202110,台南市,TNN13738,8,民德國中,23.00495,120.20504
88010,20211201,202110,台南市,TNN13739,8,大潤發,23.00463,120.20368
88011,20211201,202110,台南市,TNN13740,8,臨安海安路口,23.00391,120.19966
88012,20211201,202110,台南市,TNN13741,8,金華成功路口,23.00221,120.19631
88013,20211201,202110,台南市,TNN13742,8,協進國小(金華路),22.99749,120.19437
88014,20211201,202110,台南市,TNN13743,8,河樂廣場(金華路),22.99384,120.19351
88015,20211201,202110,台南市,TNN13746,8,水萍塭公園,22.98799,120.19251
88016,20211201,202110,台南市,TNN13747,8,客家文化會館,22.98531,120.19485
88017,20211201,202110,台南市,TNN13748,8,夏林路五妃街口,22.98265,120.19492
88018,20211201,202110,台南市,TNN13749,8,健康西門路口,22.98141,120.19727
88019,20211201,202110,台南市,TNN13750,8,家齊高中,22.98137,120.20127
88020,20211201,202110,台南市,TNN13751,8,臺南高商,22.98135,120.20322
88021,20211201,202110,台南市,TNN13752,8,體育公園(臺南大學),22.98128,120.20635
88022,20211201,202110,台南市,TNN13753,8,竹溪寺(健康路),22.98122,120.20987
88023,20211201,202110,台南市,TNN13754,8,大東夜市,22.98362,120.21777
88024,20211201,202110,台南市,TNN13755,8,勝利國小,22.98769,120.21928
88025,20211201,202110,台南市,TNN13756,8,長榮女中,22.99052,120.22105
88026,20211201,202110,台南市,TNN13757,8,長榮東寧路口,22.99251,120.22174
88027,20211201,202110,台南市,TNN13758,8,大學路口,22.99551,120.22192
88028,20211201,202110,台南市,TNN13759,8,成大自強校區,22.99814,120.22211
88029,20211201,202110,台南市,TNN13760,8,長榮小東路口,23.00166,120.22246
88030,20211201,202110,台南市,TNN13761,8,長榮東豐路口,23.00319,120.22263
88031,20211201,202110,台南市,TNN13762,8,長榮路四段,23.00636,120.22178999999998
88032,20211201,202110,台南市,TNN13763,8,中樓,23.00699,120.21908
88033,20211201,202110,台南市,TNN13764,8,開元國小,23.00632,120.21736
88034,20211201,202110,台南市,TNN13765,8,台南二中,23.00367,120.21356000000002
88035,20211201,202110,台南市,TNN13766,8,臺南公園(北門路),23.00113,120.21293
88036,20211201,202110,台南市,TNN13767,8,臺南火車站(北站),22.99751,120.21124
88037,20211201,202110,台南市,TNN13768,8,成功路,22.99803,120.20753
88038,20211201,202110,台南市,TNN13769,8,公園國小,23.00018,120.20834
88039,20211201,202110,台南市,TNN13770,8,臺南轉運站,23.00191,120.20934
88040,20211201,202110,台南市,TNN13771,8,公園北路口,23.00358,120.21033
88041,20211201,202110,台南市,TNN13772,8,臺南火車站(北站),22.99751,120.21124
88042,20211201,202110,台南市,TNN13773,8,奇美醫院,23.02096,120.22168
88043,20211201,202110,台南市,TNN13774,8,大橋,23.01777,120.22737
88044,20211201,202110,台南市,TNN13775,8,臺南高工,23.01391,120.23041
88045,20211201,202110,台南市,TNN13776,8,中華、振興路口,23.01105,120.23224
88046,20211201,202110,台南市,TNN13777,8,中華、中華二路口,23.00859,120.23375
88047,20211201,202110,台南市,TNN13778,8,兵仔市,23.00397,120.23514
88048,20211201,202110,台南市,TNN13779,8,中華小東路口,22.99894,120.23471
88049,20211201,202110,台南市,TNN13780,8,國賓影城,22.99558,120.23425
88050,20211201,202110,台南市,TNN13781,8,南紡購物中心,22.99153,120.23374
88051,20211201,202110,台南市,TNN13783,8,中華東路二段,22.98711,120.23344
88052,20211201,202110,台南市,TNN13784,8,關帝廳,22.98501,120.23271
88053,20211201,202110,台南市,TNN13785,8,中華東東門路口,22.98236,120.23023
88054,20211201,202110,台南市,TNN13786,8,中華東崇信路口,22.97938,120.22776
88055,20211201,202110,台南市,TNN13787,8,中華東崇德路口,22.97515,120.22405
88056,20211201,202110,台南市,TNN13788,8,巴克禮公園,22.97401,120.22191
88057,20211201,202110,台南市,TNN13789,8,大林,22.97312,120.21482
88058,20211201,202110,台南市,TNN13790,8,大林國宅,22.97609,120.21278999999998
88059,20211201,202110,台南市,TNN13791,8,台南觀護所,22.97511,120.21014
88060,20211201,202110,台南市,TNN13792,8,國民大成路口,22.97466,120.20462
88061,20211201,202110,台南市,TNN13793,8,勞工中心,22.98003,120.20377
88062,20211201,202110,台南市,TNN13794,8,臺南高商,22.98144,120.20311
88063,20211201,202110,台南市,TNN13795,8,家齊高中,22.98142,120.20113
88064,20211201,202110,台南市,TNN13796,8,台南站,22.98119,120.19759
88065,20211201,202110,台南市,TNN13797,8,大成國中,22.97825,120.19759
88066,20211201,202110,台南市,TNN13798,8,大成國中,22.97799,120.19778
88067,20211201,202110,台南市,TNN13799,8,台南站,22.98109,120.19775
88068,20211201,202110,台南市,TNN13800,8,家齊高中,22.98137,120.20127
88069,20211201,202110,台南市,TNN13801,8,臺南高商,22.98135,120.20322
88070,20211201,202110,台南市,TNN13802,8,勞工中心,22.98036,120.20361
88071,20211201,202110,台南市,TNN13803,8,國民大成路口,22.97478,120.20425
88072,20211201,202110,台南市,TNN13804,8,台南觀護所,22.97471,120.20932
88073,20211201,202110,台南市,TNN13805,8,大林國宅,22.97601,120.21294
88074,20211201,202110,台南市,TNN13806,8,忠孝新村,22.97577,120.21405
88075,20211201,202110,台南市,TNN13807,8,大林,22.97302,120.21482
88076,20211201,202110,台南市,TNN13808,8,巴克禮公園,22.97383,120.22198
88077,20211201,202110,台南市,TNN13809,8,中華東崇德路口,22.97512,120.22431
88078,20211201,202110,台南市,TNN13810,8,中華東崇信路口,22.97914,120.22783
88079,20211201,202110,台南市,TNN13811,8,中華東東門路口,22.98161,120.22995
88080,20211201,202110,台南市,TNN13812,8,關帝廳,22.98505,120.23302
88081,20211201,202110,台南市,TNN13813,8,中華東路二段,22.98714,120.23358
88082,20211201,202110,台南市,TNN13815,8,南紡購物中心,22.99028,120.23387
88083,20211201,202110,台南市,TNN13816,8,國賓影城,22.99553,120.23449
88084,20211201,202110,台南市,TNN13817,8,中華小東路口,22.99893,120.23481
88085,20211201,202110,台南市,TNN13818,8,兵仔市,23.00329,120.23536
88086,20211201,202110,台南市,TNN13819,8,中華、中華二路口,23.00863,120.23378999999998
88087,20211201,202110,台南市,TNN13820,8,中華、振興路口,23.01135,120.23221
88088,20211201,202110,台南市,TNN13821,8,臺南高工,23.01422,120.23044
88089,20211201,202110,台南市,TNN13822,8,大橋,23.01848,120.22661
88090,20211201,202110,台南市,TNN13823,8,奇美醫院,23.02096,120.22168
88091,20211201,202110,台南市,TNN13920,8,文南路口,22.98864,120.18975
88092,20211201,202110,台南市,TNN13921,8,家樂福,22.98899,120.18763
88093,20211201,202110,台南市,TNN13922,8,永華市政中心(府前路),22.99308,120.18443
88094,20211201,202110,台南市,TNN13923,8,生活美學館,22.99241,120.18763
88095,20211201,202110,台南市,TNN13924,8,南華街口,22.99162,120.19221
88096,20211201,202110,台南市,TNN13925,8,南華街口,22.99169,120.19222
88097,20211201,202110,台南市,TNN13926,8,生活美學館,22.99251,120.18787
88098,20211201,202110,台南市,TNN13927,8,永華市政中心(府前路),22.99316,120.18453
88099,20211201,202110,台南市,TNN13928,8,家樂福,22.98886,120.18761
88100,20211201,202110,台南市,TNN13929,8,文南路口,22.98862,120.18962
88101,20211201,202110,台南市,TNN13930,8,保安宮,22.99083,120.19618
88102,20211201,202110,台南市,TNN13931,8,保安宮,22.99083,120.19618
88103,20211201,202110,台南市,TNN13940,8,小北商場,23.00782,120.20687
88104,20211201,202110,台南市,TNN13941,8,小北商場,23.00809,120.20691
88105,20211201,202110,台南市,TNN13950,8,安平古堡(安平路),23.00018,120.16068
88106,20211201,202110,台南市,TNN13951,8,港仔里,23.00017,120.16215
88107,20211201,202110,台南市,TNN13953,8,漁民村,23.00292,120.16271
88108,20211201,202110,台南市,TNN13954,8,安平古堡(安北路),23.00287,120.16082
88109,20211201,202110,台南市,TNN13955,8,德記洋行、安平樹屋,23.00231,120.15831
88110,20211201,202110,台南市,TNN13968,8,東區電信局,22.96576,120.22741
88111,20211201,202110,台南市,TNN13969,8,東區電信局,22.96571,120.22757
88112,20211201,202110,台南市,TNN13970,8,市立醫院,22.96878,120.22759
88113,20211201,202110,台南市,TNN13976,8,崇明路,22.96672,120.22668
88114,20211201,202110,台南市,TNN13978,8,大社角,23.01817,120.13101
88115,20211201,202110,台南市,TNN13979,8,四草,23.01699,120.12862
88116,20211201,202110,台南市,TNN13990,8,四草,23.01712,120.12872
88117,20211201,202110,台南市,TNN14000,8,中山國中,22.98434,120.20405
88118,20211201,202110,台南市,TNN14001,8,中山國中,22.98421,120.20409
88119,20211201,202110,台南市,TNN14010,8,建平十四街口,22.99568,120.18405
88120,20211201,202110,台南市,TNN14011,8,慶平路,22.99698,120.18161
88121,20211201,202110,台南市,TNN14012,8,文平路,22.99574,120.17898999999998
88122,20211201,202110,台南市,TNN14013,8,怡平路口,22.99306,120.17866
88123,20211201,202110,台南市,TNN14030,8,臺南火車站(南站),22.99721,120.21124
88124,20211201,202110,台南市,TNN14031,8,台南醫院,22.99538,120.20931000000002
88125,20211201,202110,台南市,TNN14032,8,中山、民權路口,22.99398,120.20709
88126,20211201,202110,台南市,TNN14033,8,中華電信,22.99346,120.20275
88127,20211201,202110,台南市,TNN14034,8,西門、友愛街口,22.99224,120.19834
88128,20211201,202110,台南市,TNN14035,8,小西門(大億麗緻),22.98853,120.19753
88129,20211201,202110,台南市,TNN14036,8,永華站,22.98746,120.19661
88130,20211201,202110,台南市,TNN14037,8,水萍塭公園,22.98801,120.19279
88131,20211201,202110,台南市,TNN14038,8,文南路口,22.98864,120.18975
88132,20211201,202110,台南市,TNN14039,8,家樂福,22.98899,120.18763
88133,20211201,202110,台南市,TNN14040,8,永華市政中心(府前路),22.99308,120.18443
88134,20211201,202110,台南市,TNN14041,8,停2停車場,22.99645,120.18645
88135,20211201,202110,台南市,TNN14042,8,民權路口,22.99964,120.18685
88136,20211201,202110,台南市,TNN14043,8,中華西路二段,23.00531,120.18668999999998
88137,20211201,202110,台南市,TNN14044,8,武聖路口,23.00752,120.18756
88138,20211201,202110,台南市,TNN14045,8,和緯路四段,23.00914,120.19178
88139,20211201,202110,台南市,TNN14046,8,特力屋、好市多,23.01092,120.19393
88140,20211201,202110,台南市,TNN14047,8,大興街口,23.01241,120.19375
88141,20211201,202110,台南市,TNN14048,8,文元寮,23.01521,120.19361
88142,20211201,202110,台南市,TNN14049,8,溪仔墘社區,23.02072,120.19238
88143,20211201,202110,台南市,TNN14050,8,協成社區,23.02452000000001,120.19163
88144,20211201,202110,台南市,TNN14051,8,中華社區,23.02722,120.19105
88145,20211201,202110,台南市,TNN14052,8,海東橋,23.03077,120.19035
88146,20211201,202110,台南市,TNN14053,8,理想社區,23.03294,120.19001000000002
88147,20211201,202110,台南市,TNN14054,8,海尾前,23.03602,120.18893
88148,20211201,202110,台南市,TNN14055,8,同安路口,23.03842,120.18824
88149,20211201,202110,台南市,TNN14056,8,海東里,23.04023,120.18775
88150,20211201,202110,台南市,TNN14057,8,南海尾,23.04245,120.18712
88151,20211201,202110,台南市,TNN14058,8,溪心里,23.04511,120.18558
88152,20211201,202110,台南市,TNN14059,8,海佃路三段,23.04893,120.18248
88153,20211201,202110,台南市,TNN14060,8,仁安四街口,23.05079,120.18087
88154,20211201,202110,台南市,TNN14061,8,仁安路,23.05136,120.17861
88155,20211201,202110,台南市,TNN14062,8,安南衛生所,23.04978,120.17551
88156,20211201,202110,台南市,TNN14063,8,安南衛生所,23.05005,120.17594
88157,20211201,202110,台南市,TNN14064,8,仁安路,23.05125,120.17863
88158,20211201,202110,台南市,TNN14065,8,仁安四街口,23.05053,120.18101
88159,20211201,202110,台南市,TNN14066,8,海佃路三段,23.04777,120.18336
88160,20211201,202110,台南市,TNN14067,8,溪心里,23.04507000000001,120.18541
88161,20211201,202110,台南市,TNN14068,8,南海尾,23.04241,120.18702
88162,20211201,202110,台南市,TNN14069,8,海東里,23.03953,120.18778
88163,20211201,202110,台南市,TNN14070,8,同安路口,23.03813,120.18813
88164,20211201,202110,台南市,TNN14071,8,海尾前,23.035870000000006,120.18881
88165,20211201,202110,台南市,TNN14072,8,理想社區,23.03302,120.18979
88166,20211201,202110,台南市,TNN14073,8,海東橋,23.03055,120.19021
88167,20211201,202110,台南市,TNN14074,8,中華社區,23.02738,120.19088
88168,20211201,202110,台南市,TNN14075,8,海佃路一段,23.02561,120.19123
88169,20211201,202110,台南市,TNN14076,8,協成社區,23.02355,120.19175
88170,20211201,202110,台南市,TNN14077,8,溪仔墘社區,23.02081,120.19221
88171,20211201,202110,台南市,TNN14078,8,文元寮,23.01533,120.19361
88172,20211201,202110,台南市,TNN14079,8,大興街口,23.01383,120.19385
88173,20211201,202110,台南市,TNN14080,8,特力屋、好市多,23.01036,120.19389
88174,20211201,202110,台南市,TNN14081,8,和緯路四段,23.00936,120.19181
88175,20211201,202110,台南市,TNN14082,8,武聖路口,23.00767,120.18847
88176,20211201,202110,台南市,TNN14083,8,中華西路二段,23.00523,120.18649
88177,20211201,202110,台南市,TNN14084,8,民權路口,22.99986,120.18671
88178,20211201,202110,台南市,TNN14085,8,停2停車場,22.99632,120.18631
88179,20211201,202110,台南市,TNN14086,8,永華市政中心(府前路),22.99316,120.18453
88180,20211201,202110,台南市,TNN14087,8,家樂福,22.98886,120.18761
88181,20211201,202110,台南市,TNN14088,8,文南路口,22.98862,120.18962
88182,20211201,202110,台南市,TNN14089,8,水萍塭公園,22.98794,120.19262
88183,20211201,202110,台南市,TNN14090,8,永華站,22.98737,120.19662
88184,20211201,202110,台南市,TNN14091,8,小西門(大億麗緻),22.98854,120.19769
88185,20211201,202110,台南市,TNN14092,8,西門、友愛街口,22.99113,120.19817
88186,20211201,202110,台南市,TNN14093,8,中華電信,22.99334,120.20245
88187,20211201,202110,台南市,TNN14095,8,中山、民權路口,22.99375,120.20709
88188,20211201,202110,台南市,TNN14096,8,台南醫院,22.99528,120.20937
88189,20211201,202110,台南市,TNN14097,8,臺南火車站(北站),22.99751,120.21124
88190,20211201,202110,台南市,TNN14098,8,台南站,22.98206,120.19775
88191,20211201,202110,台南市,TNN14099,8,西門路一段,22.98411,120.19769
88192,20211201,202110,台南市,TNN14100,8,新光三越新天地,22.98695,120.19774
88193,20211201,202110,台南市,TNN14101,8,小西門(大億麗緻),22.98854,120.19769
88194,20211201,202110,台南市,TNN14102,8,西門、友愛街口,22.99113,120.19817
88195,20211201,202110,台南市,TNN14103,8,中華電信,22.99334,120.20245
88196,20211201,202110,台南市,TNN14105,8,中山、民權路口,22.99375,120.20709
88197,20211201,202110,台南市,TNN14106,8,台南醫院,22.99528,120.20937
88198,20211201,202110,台南市,TNN14107,8,臺南火車站(南站),22.99706,120.21119
88199,20211201,202110,台南市,TNN14108,8,公園南路,23.00074,120.21017
88200,20211201,202110,台南市,TNN14109,8,忠義路口,23.00204,120.20576
88201,20211201,202110,台南市,TNN14110,8,民德路口,23.00322,120.20411
88202,20211201,202110,台南市,TNN14111,8,民德國中,23.00501,120.20542
88203,20211201,202110,台南市,TNN14112,8,小北商場,23.00782,120.20687
88204,20211201,202110,台南市,TNN14113,8,西門路四段,23.00952,120.20794
88205,20211201,202110,台南市,TNN14118,8,聖安街口,23.02698,120.20517
88206,20211201,202110,台南市,TNN14119,8,安通路口,23.03042,120.20471
88207,20211201,202110,台南市,TNN14120,8,安中路口,23.03783,120.20271
88208,20211201,202110,台南市,TNN14121,8,安中路一段,23.03973,120.20142
88209,20211201,202110,台南市,TNN14122,8,草湖寮,23.04162,120.19821
88210,20211201,202110,台南市,TNN14123,8,和順國宅,23.04212,120.19728
88211,20211201,202110,台南市,TNN14124,8,埤圳邊,23.04449,120.19313
88212,20211201,202110,台南市,TNN14125,8,安中、安吉路口,23.04608,120.18928
88213,20211201,202110,台南市,TNN14126,8,安南區公所,23.04708,120.18458
88214,20211201,202110,台南市,TNN14127,8,海佃路三段,23.04893,120.18248
88215,20211201,202110,台南市,TNN14128,8,仁安四街口,23.05079,120.18087
88216,20211201,202110,台南市,TNN14129,8,仁安路,23.05136,120.17861
88217,20211201,202110,台南市,TNN14130,8,安南衛生所,23.04978,120.17551
88218,20211201,202110,台南市,TNN14131,8,安南衛生所,23.05005,120.17594
88219,20211201,202110,台南市,TNN14132,8,仁安路,23.05125,120.17863
88220,20211201,202110,台南市,TNN14133,8,仁安四街口,23.05053,120.18101
88221,20211201,202110,台南市,TNN14134,8,海佃路三段,23.04777,120.18336
88222,20211201,202110,台南市,TNN14135,8,安南區公所,23.04675,120.18545
88223,20211201,202110,台南市,TNN14136,8,安中、安吉路口,23.04593,120.18947
88224,20211201,202110,台南市,TNN14137,8,埤圳邊,23.04456,120.19291
88225,20211201,202110,台南市,TNN14138,8,和順國宅,23.04267,120.19613
88226,20211201,202110,台南市,TNN14139,8,草湖寮,23.04162,120.19801
88227,20211201,202110,台南市,TNN14140,8,安中路一段,23.03946,120.20158
88228,20211201,202110,台南市,TNN14141,8,安中路口,23.03758,120.20258
88229,20211201,202110,台南市,TNN14142,8,安通路口,23.03155,120.20428
88230,20211201,202110,台南市,TNN14143,8,聖安街口,23.02698,120.20493
88231,20211201,202110,台南市,TNN14148,8,西門路四段,23.00957,120.20781
88232,20211201,202110,台南市,TNN14149,8,小北商場,23.00809,120.20691
88233,20211201,202110,台南市,TNN14150,8,民德國中,23.00495,120.20504
88234,20211201,202110,台南市,TNN14151,8,民德路口,23.00322,120.20377
88235,20211201,202110,台南市,TNN14152,8,忠義路口,23.00187,120.20565
88236,20211201,202110,台南市,TNN14153,8,公園南路,23.00084,120.20972
88237,20211201,202110,台南市,TNN14154,8,臺南火車站(北站),22.99751,120.21124
88238,20211201,202110,台南市,TNN14155,8,台南醫院,22.99538,120.20931000000002
88239,20211201,202110,台南市,TNN14156,8,中山、民權路口,22.99398,120.20709
88240,20211201,202110,台南市,TNN14157,8,中華電信,22.99345,120.20281
88241,20211201,202110,台南市,TNN14158,8,西門、友愛街口,22.99224,120.19834
88242,20211201,202110,台南市,TNN14159,8,小西門(大億麗緻),22.98853,120.19753
88243,20211201,202110,台南市,TNN14160,8,新光三越新天地,22.98661,120.19748
88244,20211201,202110,台南市,TNN14161,8,西門路一段,22.98445,120.19752
88245,20211201,202110,台南市,TNN14162,8,台南站,22.98237,120.19759
88246,20211201,202110,台南市,TNN14170,8,碧海碼頭,22.99378,120.15287
88247,20211201,202110,台南市,TNN14171,8,育平派出所,22.99225,120.16731
88248,20211201,202110,台南市,TNN14172,8,育平派出所,22.99248,120.16751
88249,20211201,202110,台南市,TNN14173,8,碧海碼頭,22.99292,120.15237
88250,20211201,202110,台南市,TNN14176,8,建興國中(府前路),22.98923,120.20423999999998
88251,20211201,202110,台南市,TNN14177,8,原住民文化會館,22.99575,120.16367
88252,20211201,202110,台南市,TNN14178,8,原住民文化會館,22.99575,120.16367
88253,20211201,202110,台南市,TNN14179,8,建興國中(府前路),22.98926,120.20344
88254,20211201,202110,台南市,TNN14192,8,臺南高工,23.01382000000001,120.23041
88255,20211201,202110,台南市,TNN14193,8,國賓影城,22.99558,120.23421
88256,20211201,202110,台南市,TNN14194,8,國賓影城,22.99558,120.23425
88257,20211201,202110,台南市,TNN14195,8,臺南高工,23.01418,120.23035
88258,20211201,202110,台南市,TNN14200,8,郡平路口,22.98951,120.16682
88259,20211201,202110,台南市,TNN14201,8,郡平路口,22.98964,120.16705
88260,20211201,202110,台南市,TNN14240,8,竹溪寺(大林路),22.97404,120.20616
88261,20211201,202110,台南市,TNN14241,8,竹溪寺(大林路),22.97397,120.20659
88262,20211201,202110,台南市,TNN14250,8,公塭里,23.06944,120.16624
88263,20211201,202110,台南市,TNN14251,8,公塭里,23.06929,120.16615
88264,20211201,202110,台南市,TNN14260,8,安平區公所,22.99416,120.16821000000002
88265,20211201,202110,台南市,TNN14270,8,裕和路,22.98767,120.24097
88266,20211201,202110,台南市,TNN14271,8,南聖公園,22.98779,120.24591
88267,20211201,202110,台南市,TNN14272,8,裕信路口,22.99014,120.24474
88268,20211201,202110,台南市,TNN14273,8,裕信路口,22.99004,120.24468
88269,20211201,202110,台南市,TNN14274,8,南聖公園,22.98779,120.24612
88270,20211201,202110,台南市,TNN14275,8,裕和路,22.98772,120.24011000000002
88271,20211201,202110,台南市,TNN14290,8,長安里,23.06182,120.19966
88272,20211201,202110,台南市,TNN14291,8,長安里,23.06207,120.19935
88273,20211201,202110,台南市,TNN14292,8,關帝廳,22.98491,120.23261
88274,20211201,202110,台南市,TNN14293,8,富農街口,22.97822,120.23312
88275,20211201,202110,台南市,TNN14294,8,富農街口,22.97797000000001,120.23394
88276,20211201,202110,台南市,TNN14295,8,關帝廳,22.98514,120.23299
88277,20211201,202110,台南市,TNN14296,8,大成路口,22.97485,120.19775
88278,20211201,202110,台南市,TNN14297,8,大成路口,22.97402,120.19765
88279,20211201,202110,台南市,TNN14298,8,大成路口,22.97402,120.19765
88280,20211201,202110,台南市,TNN14299,8,大成路口,22.97485,120.19775
88281,20211201,202110,台南市,TNN14300,8,大成國中,22.97799,120.19778
88282,20211201,202110,台南市,TNN14301,8,大成國中,22.97825,120.19759
88283,20211201,202110,台南市,TNN14320,8,海巡基地站,22.87613,120.20113
88284,20211201,202110,台南市,TNN14321,8,海巡基地站,22.87641,120.20098
88285,20211201,202110,台南市,TNN14330,8,奇美博物館,22.93496,120.22088
88286,20211201,202110,台南市,TNN14331,8,臺南家具產業博物館,22.92431,120.22311
88287,20211201,202110,台南市,TNN14332,8,嘉南藥理大學,22.92064,120.22499
88288,20211201,202110,台南市,TNN14333,8,嘉南藥理大學,22.92064,120.22499
88289,20211201,202110,台南市,TNN14334,8,臺南家具產業博物館,22.92354,120.22371
88290,20211201,202110,台南市,TNN14335,8,奇美博物館,22.93355,120.22108
88291,20211201,202110,台南市,TNN14340,8,市立醫院,22.96878,120.22759
88292,20211201,202110,台南市,TNN14341,8,崇德十四街口,22.97082,120.22746
88293,20211201,202110,台南市,TNN14342,8,崇明國中,22.97047,120.22573
88294,20211201,202110,台南市,TNN14343,8,市立醫院(崇明路),22.96926,120.22562
88295,20211201,202110,台南市,TNN14360,8,和順國中,23.06881,120.22297
88296,20211201,202110,台南市,TNN14361,8,安南醫院,23.06449,120.22366
88297,20211201,202110,台南市,TNN14362,8,東和里,23.06279,120.22739
88298,20211201,202110,台南市,TNN14363,8,東和里活動中心,23.06178,120.22887
88299,20211201,202110,台南市,TNN14364,8,臺灣歷史博物館(長和路),23.05855,120.23215
88300,20211201,202110,台南市,TNN14365,8,臺灣歷史博物館(慶和路),23.05767,120.23737
88301,20211201,202110,台南市,TNN14366,8,臺灣歷史博物館(慶和路),23.05767,120.23737
88302,20211201,202110,台南市,TNN14367,8,臺灣歷史博物館(長和路),23.05821,120.23288
88303,20211201,202110,台南市,TNN14368,8,東和里活動中心,23.06223,120.22881
88304,20211201,202110,台南市,TNN14369,8,東和里,23.06273,120.22791
88305,20211201,202110,台南市,TNN14370,8,安南醫院,23.06449,120.22366
88306,20211201,202110,台南市,TNN14371,8,和順國中,23.06889,120.22304
88307,20211201,202110,台南市,TNN14380,8,沙灘忠誠社區,22.99705,120.14912
88308,20211201,202110,台南市,TNN14381,8,白鷺灣社區,22.99731,120.14685
88309,20211201,202110,台南市,TNN14382,8,白鷺灣社區,22.99722,120.14692
88310,20211201,202110,台南市,TNN14383,8,沙灘忠誠社區,22.99694,120.14904
88311,20211201,202110,台南市,TNN14384,8,花園夜市,23.00923,120.20002
88312,20211201,202110,台南市,TNN14385,8,花園夜市,23.00916,120.19979
88313,20211201,202110,台南市,TNN14405,8,崇義社區,22.99962,120.15257
88314,20211201,202110,台南市,TNN14411,8,德記洋行、安平樹屋(850巷),23.00188,120.15837
88315,20211201,202110,台南市,TNN14412,8,德記洋行、安平樹屋(850巷),23.00188,120.15837
88316,20211201,202110,台南市,TNN14413,8,文化中心(台糖長榮酒店),22.97522,120.22241
88317,20211201,202110,台南市,TNN14414,8,崇學、崇明路口,22.97786,120.22084
88318,20211201,202110,台南市,TNN14415,8,富強市場,22.98249,120.22576
88319,20211201,202110,台南市,TNN14416,8,富強市場,22.98254,120.22571
88320,20211201,202110,台南市,TNN14417,8,崇學、崇明路口,22.97784,120.22067
88321,20211201,202110,台南市,TNN14418,8,文化中心(台糖長榮酒店),22.975620000000006,120.22193
88322,20211201,202110,台南市,TNN14450,8,同平路,22.99653,120.15311
88323,20211201,202110,台南市,TNN14451,8,同平路,22.99614,120.15328999999998
88324,20211201,202110,台南市,TNN14452,8,西湖街口,23.00367,120.18695
88325,20211201,202110,台南市,TNN14453,8,西湖街口,23.00416,120.18675
88326,20211201,202110,台南市,TNN14461,8,濱海站,22.98187,120.15552
88327,20211201,202110,台南市,TNN14466,8,濱海站,22.98187,120.15552
88328,20211201,202110,台南市,TNN14468,8,漁光里,22.98455,120.15363
88329,20211201,202110,台南市,TNN14520,8,南公親,23.07475,120.19864
88330,20211201,202110,台南市,TNN14521,8,南公親,23.074720000000006,120.19858
88331,20211201,202110,台南市,TNN14522,8,城西街三段,23.05871,120.10268
88332,20211201,202110,台南市,TNN14523,8,城西街三段,23.05863,120.10281
88333,20211201,202110,台南市,TNN14530,8,仁愛里國泰社區,22.95437,120.21777
88334,20211201,202110,台南市,TNN14531,8,仁愛里國泰社區,22.95437,120.21777
88335,20211201,202110,台南市,TNN15000,8,安平工業區,22.96891,120.17431
88336,20211201,202110,台南市,TNN15001,8,中華南路二段,22.96178,120.18543
88337,20211201,202110,台南市,TNN15002,8,新興國宅,22.96171,120.18728
88338,20211201,202110,台南市,TNN15003,8,德興路口,22.96186,120.19281
88339,20211201,202110,台南市,TNN15004,8,郡南里,22.96628,120.19532
88340,20211201,202110,台南市,TNN15005,8,府南里,22.97414,120.19543
88341,20211201,202110,台南市,TNN15006,8,新興國小,22.97896,120.19652
88342,20211201,202110,台南市,TNN15007,8,台南站,22.98206,120.19775
88343,20211201,202110,台南市,TNN15008,8,小西門(大億麗緻),22.98883,120.19752
88344,20211201,202110,台南市,TNN15009,8,西門、友愛街口,22.99113,120.19817
88345,20211201,202110,台南市,TNN15010,8,中正、西門路口,22.99247,120.19959
88346,20211201,202110,台南市,TNN15011,8,林百貨(中正路),22.99202,120.20172
88347,20211201,202110,台南市,TNN15012,8,中山、民權路口,22.99375,120.20709
88348,20211201,202110,台南市,TNN15013,8,臺南火車站(北站),22.99762,120.21158
88349,20211201,202110,台南市,TNN15014,8,東門圓環,22.99086,120.21149
88350,20211201,202110,台南市,TNN15015,8,東門教會,22.98742,120.21585
88351,20211201,202110,台南市,TNN15016,8,東門城,22.98645,120.21931
88352,20211201,202110,台南市,TNN15017,8,龍山寺,22.98584,120.22128
88353,20211201,202110,台南市,TNN15018,8,富強市場,22.98277,120.22718
88354,20211201,202110,台南市,TNN15019,8,東門路,22.98181,120.22842
88355,20211201,202110,台南市,TNN15020,8,虎尾寮,22.98007,120.23073
88356,20211201,202110,台南市,TNN15021,8,富農街口,22.97822,120.23312
88357,20211201,202110,台南市,TNN15022,8,嘉南療養院,22.97437,120.24198
88358,20211201,202110,台南市,TNN15023,8,仁德交流道,22.97341,120.24497
88359,20211201,202110,台南市,TNN15024,8,仁德,22.97149,120.25216
88360,20211201,202110,台南市,TNN15025,8,仁義里,22.97115,120.25508
88361,20211201,202110,台南市,TNN15026,8,鍾厝,22.97082,120.25799
88362,20211201,202110,台南市,TNN15027,8,慈濟台南分會,22.97065,120.26026
88363,20211201,202110,台南市,TNN15028,8,義林一街口,22.97044,120.26197
88364,20211201,202110,台南市,TNN15029,8,林仔,22.97012,120.26503999999998
88365,20211201,202110,台南市,TNN15030,8,南紡世貿展覽中心,22.96941,120.27041
88366,20211201,202110,台南市,TNN15031,8,上帝廟,22.96896,120.27391
88367,20211201,202110,台南市,TNN15032,8,南興里,22.96859,120.27743999999998
88368,20211201,202110,台南市,TNN15033,8,南保,22.96811,120.28153
88369,20211201,202110,台南市,TNN15034,8,姓李仔,22.96776,120.28551000000002
88370,20211201,202110,台南市,TNN15035,8,後市,22.96733,120.28867
88371,20211201,202110,台南市,TNN15036,8,歸仁區公所,22.96668,120.29359
88372,20211201,202110,台南市,TNN15037,8,善化寺,22.96597,120.30072
88373,20211201,202110,台南市,TNN15038,8,看東里,22.96532,120.30392
88374,20211201,202110,台南市,TNN15039,8,修元堂,22.96454,120.30702
88375,20211201,202110,台南市,TNN15040,8,歸仁交流道,22.96281,120.31265
88376,20211201,202110,台南市,TNN15041,8,大亞公司,22.96199,120.31614
88377,20211201,202110,台南市,TNN15042,8,關廟國中,22.96034,120.32481
88378,20211201,202110,台南市,TNN15043,8,關廟市場,22.96208,120.32831000000002
88379,20211201,202110,台南市,TNN15044,8,北勢里,22.96181,120.33075
88380,20211201,202110,台南市,TNN15045,8,花園,22.96322,120.33464
88381,20211201,202110,台南市,TNN15046,8,關廟轉運站,22.96329,120.33751
88382,20211201,202110,台南市,TNN15047,8,仰龍橋,22.96726,120.34476
88383,20211201,202110,台南市,TNN15048,8,牛稠埔,22.96784,120.34902
88384,20211201,202110,台南市,TNN15049,8,九天宮,22.96839,120.35294
88385,20211201,202110,台南市,TNN15050,8,龍崎,22.96475,120.36014
88386,20211201,202110,台南市,TNN15051,8,龍崎,22.96475,120.36014
88387,20211201,202110,台南市,TNN15052,8,九天宮,22.96854,120.35288
88388,20211201,202110,台南市,TNN15053,8,牛稠埔,22.96796,120.34901
88389,20211201,202110,台南市,TNN15054,8,仰龍橋,22.96734,120.34448
88390,20211201,202110,台南市,TNN15055,8,關廟轉運站,22.96345,120.33731
88391,20211201,202110,台南市,TNN15056,8,花園,22.96324,120.33461
88392,20211201,202110,台南市,TNN15057,8,北勢里,22.961920000000006,120.33144
88393,20211201,202110,台南市,TNN15058,8,關廟市場,22.96221,120.32838999999998
88394,20211201,202110,台南市,TNN15059,8,關廟國中,22.96046,120.32505
88395,20211201,202110,台南市,TNN15060,8,大亞公司,22.96187,120.31706
88396,20211201,202110,台南市,TNN15061,8,歸仁交流道,22.96294,120.31289
88397,20211201,202110,台南市,TNN15062,8,修元堂,22.96456,120.30736
88398,20211201,202110,台南市,TNN15063,8,看東里,22.96553,120.30382
88399,20211201,202110,台南市,TNN15064,8,善化寺,22.96603,120.30109
88400,20211201,202110,台南市,TNN15065,8,歸仁區公所,22.96684,120.29368
88401,20211201,202110,台南市,TNN15066,8,後市,22.96735,120.28846
88402,20211201,202110,台南市,TNN15067,8,姓李仔,22.96777,120.28558
88403,20211201,202110,台南市,TNN15068,8,南保,22.96828,120.28158
88404,20211201,202110,台南市,TNN15069,8,南興里,22.96876,120.27751
88405,20211201,202110,台南市,TNN15070,8,上帝廟,22.96918,120.27397
88406,20211201,202110,台南市,TNN15071,8,南紡世貿展覽中心,22.96955,120.27051000000002
88407,20211201,202110,台南市,TNN15072,8,林仔,22.97016,120.26516
88408,20211201,202110,台南市,TNN15073,8,義林一街口,22.97054,120.26216
88409,20211201,202110,台南市,TNN15074,8,慈濟台南分會,22.97068,120.26027
88410,20211201,202110,台南市,TNN15075,8,鍾厝,22.97083,120.25821
88411,20211201,202110,台南市,TNN15076,8,仁義里,22.97112000000001,120.25565
88412,20211201,202110,台南市,TNN15077,8,仁德,22.97162,120.25227
88413,20211201,202110,台南市,TNN15078,8,仁德交流道,22.97315,120.24627
88414,20211201,202110,台南市,TNN15079,8,嘉南療養院,22.97465,120.24139
88415,20211201,202110,台南市,TNN15080,8,富農街口,22.97788,120.23403
88416,20211201,202110,台南市,TNN15081,8,虎尾寮,22.98012,120.23095
88417,20211201,202110,台南市,TNN15082,8,東門路,22.98187,120.22854
88418,20211201,202110,台南市,TNN15083,8,富強市場,22.98272,120.22731
88419,20211201,202110,台南市,TNN15084,8,龍山寺,22.98582,120.22135
88420,20211201,202110,台南市,TNN15085,8,東門城,22.98671,120.21849
88421,20211201,202110,台南市,TNN15086,8,東門教會,22.98747,120.21597
88422,20211201,202110,台南市,TNN15087,8,東門圓環,22.99081,120.21151
88423,20211201,202110,台南市,TNN15088,8,臺南火車站(南站),22.99706,120.21119
88424,20211201,202110,台南市,TNN15089,8,中山、民權路口,22.99398,120.20709
88425,20211201,202110,台南市,TNN15090,8,林百貨(中正路),22.99205,120.20221
88426,20211201,202110,台南市,TNN15091,8,中正、西門路口,22.99261,120.19981
88427,20211201,202110,台南市,TNN15092,8,西門、友愛街口,22.99224,120.19834
88428,20211201,202110,台南市,TNN15093,8,小西門(大億麗緻),22.98812,120.19741
88429,20211201,202110,台南市,TNN15095,8,台南站,22.98237,120.19759
88430,20211201,202110,台南市,TNN15096,8,新興國小,22.97887,120.19604
88431,20211201,202110,台南市,TNN15097,8,府南里,22.97444,120.19535
88432,20211201,202110,台南市,TNN15098,8,郡南里,22.96671,120.19526
88433,20211201,202110,台南市,TNN15099,8,德興路口,22.96178,120.19235
88434,20211201,202110,台南市,TNN15100,8,新興國宅,22.96183,120.18736
88435,20211201,202110,台南市,TNN15101,8,中華南路二段,22.96191,120.18565
88436,20211201,202110,台南市,TNN15102,8,安平工業區,22.96891,120.17431
88437,20211201,202110,台南市,TNN15104,8,臺南火車站(北站),22.99769,120.21161
88438,20211201,202110,台南市,TNN15105,8,東門圓環,22.99086,120.21149
88439,20211201,202110,台南市,TNN15106,8,東門教會,22.98742,120.21585
88440,20211201,202110,台南市,TNN15107,8,東門城,22.98645,120.21931
88441,20211201,202110,台南市,TNN15108,8,龍山寺,22.98584,120.22128
88442,20211201,202110,台南市,TNN15109,8,妙善寺,22.98643,120.22828
88443,20211201,202110,台南市,TNN15110,8,後甲,22.98858,120.23678
88444,20211201,202110,台南市,TNN15111,8,慈幼工商,22.98893,120.23921
88445,20211201,202110,台南市,TNN15112,8,國道南工處,22.99058,120.24746
88446,20211201,202110,台南市,TNN15113,8,棉新紡織,22.99132,120.25233
88447,20211201,202110,台南市,TNN15114,8,明直宮,22.99141,120.25712
88448,20211201,202110,台南市,TNN15115,8,太子廟,22.99129,120.26005
88449,20211201,202110,台南市,TNN15116,8,土井仔,22.99152,120.26743
88450,20211201,202110,台南市,TNN15117,8,六甲店,22.99171,120.27073
88451,20211201,202110,台南市,TNN15118,8,東春紡織,22.99185,120.27298
88452,20211201,202110,台南市,TNN15119,8,大人廟,22.99716,120.27731
88453,20211201,202110,台南市,TNN15120,8,西勢仔,22.99705,120.28812
88454,20211201,202110,台南市,TNN15121,8,媽廟北,22.99612,120.29379
88455,20211201,202110,台南市,TNN15122,8,媽祖廟,22.99425,120.29373
88456,20211201,202110,台南市,TNN15123,8,圳頭,22.98871,120.29239
88457,20211201,202110,台南市,TNN15124,8,七甲,22.98379,120.29296
88458,20211201,202110,台南市,TNN15125,8,富強社區,22.98074,120.29374
88459,20211201,202110,台南市,TNN15126,8,八甲,22.97706,120.29501
88460,20211201,202110,台南市,TNN15127,8,新豐高中,22.97198,120.29539
88461,20211201,202110,台南市,TNN15128,8,歸仁國中,22.97005,120.29501
88462,20211201,202110,台南市,TNN15129,8,歸仁區公所(中正北路),22.96744,120.29434
88463,20211201,202110,台南市,TNN15130,8,歸仁市場,22.96687,120.29681
88464,20211201,202110,台南市,TNN15131,8,歸仁,22.96923,120.29995
88465,20211201,202110,台南市,TNN15132,8,看東里,22.96532,120.30392
88466,20211201,202110,台南市,TNN15133,8,修元堂,22.96454,120.30702
88467,20211201,202110,台南市,TNN15134,8,歸仁交流道,22.96281,120.31265
88468,20211201,202110,台南市,TNN15135,8,大亞公司,22.96199,120.31614
88469,20211201,202110,台南市,TNN15136,8,關廟國中,22.96034,120.32481
88470,20211201,202110,台南市,TNN15137,8,關廟國中,22.96046,120.32505
88471,20211201,202110,台南市,TNN15138,8,大亞公司,22.96187,120.31706
88472,20211201,202110,台南市,TNN15139,8,歸仁交流道,22.96294,120.31289
88473,20211201,202110,台南市,TNN15140,8,修元堂,22.96456,120.30736
88474,20211201,202110,台南市,TNN15141,8,看東里,22.96553,120.30382
88475,20211201,202110,台南市,TNN15142,8,歸仁,22.96914,120.29975
88476,20211201,202110,台南市,TNN15143,8,歸仁市場,22.96671,120.29667
88477,20211201,202110,台南市,TNN15144,8,歸仁區公所(中正北路),22.96731,120.29443
88478,20211201,202110,台南市,TNN15145,8,歸仁國中,22.97001,120.29504
88479,20211201,202110,台南市,TNN15146,8,新豐高中,22.97194,120.29559
88480,20211201,202110,台南市,TNN15147,8,八甲,22.97677,120.29501
88481,20211201,202110,台南市,TNN15148,8,富強社區,22.98071,120.29374
88482,20211201,202110,台南市,TNN15149,8,七甲,22.98387,120.29295
88483,20211201,202110,台南市,TNN15150,8,圳頭,22.98869,120.29246
88484,20211201,202110,台南市,TNN15151,8,媽祖廟,22.99406,120.29364
88485,20211201,202110,台南市,TNN15152,8,媽廟北,22.99622,120.29375
88486,20211201,202110,台南市,TNN15153,8,西勢仔,22.99708,120.28801
88487,20211201,202110,台南市,TNN15154,8,大人廟,22.997020000000006,120.27755
88488,20211201,202110,台南市,TNN15155,8,東春紡織,22.99199,120.27299
88489,20211201,202110,台南市,TNN15156,8,六甲店,22.99184,120.27016
88490,20211201,202110,台南市,TNN15157,8,土井仔,22.99163,120.26703
88491,20211201,202110,台南市,TNN15158,8,太子廟,22.99124,120.26001
88492,20211201,202110,台南市,TNN15159,8,明直宮,22.99127,120.25656
88493,20211201,202110,台南市,TNN15160,8,棉新紡織,22.99147,120.25248
88494,20211201,202110,台南市,TNN15161,8,國道南工處,22.99073,120.24744
88495,20211201,202110,台南市,TNN15162,8,慈幼工商,22.98906,120.23914
88496,20211201,202110,台南市,TNN15163,8,後甲,22.98867000000001,120.23656
88497,20211201,202110,台南市,TNN15164,8,妙善寺,22.98646,120.22853
88498,20211201,202110,台南市,TNN15165,8,龍山寺,22.98582,120.22135
88499,20211201,202110,台南市,TNN15166,8,東門城,22.98671,120.21849
88500,20211201,202110,台南市,TNN15167,8,東門教會,22.98747,120.21597
88501,20211201,202110,台南市,TNN15168,8,東門圓環,22.99081,120.21151
88502,20211201,202110,台南市,TNN15169,8,臺南火車站(南站),22.99706,120.21119
88503,20211201,202110,台南市,TNN15172,8,臺南火車站(北站),22.99762,120.21158
88504,20211201,202110,台南市,TNN15183,8,仁德,22.97101,120.25162
88505,20211201,202110,台南市,TNN15184,8,土庫仔,22.96731,120.25283
88506,20211201,202110,台南市,TNN15185,8,中正路(仁德),22.96432,120.25349
88507,20211201,202110,台南市,TNN15186,8,崙仔尾,22.96006,120.25329
88508,20211201,202110,台南市,TNN15187,8,北保仔,22.95366,120.25201
88509,20211201,202110,台南市,TNN15188,8,後壁厝,22.95052,120.25149
88510,20211201,202110,台南市,TNN15189,8,三塊厝(仁德),22.94815,120.25117
88511,20211201,202110,台南市,TNN15190,8,鉅全公司,22.94469,120.25034
88512,20211201,202110,台南市,TNN15191,8,蔦松腳,22.93981,120.24849
88513,20211201,202110,台南市,TNN15192,8,田厝,22.93852,120.24808
88514,20211201,202110,台南市,TNN15193,8,上崙子,22.94263,120.25867
88515,20211201,202110,台南市,TNN15194,8,社尾,22.95275,120.27509
88516,20211201,202110,台南市,TNN15195,8,六甲,22.95266,120.27745
88517,20211201,202110,台南市,TNN15196,8,歸南派出所,22.95414,120.28031
88518,20211201,202110,台南市,TNN15197,8,頂歸南,22.95665,120.28271
88519,20211201,202110,台南市,TNN15198,8,歸南,22.95841,120.28467
88520,20211201,202110,台南市,TNN15199,8,崁仔下,22.96029,120.28735
88521,20211201,202110,台南市,TNN15200,8,崁仔頭,22.96216,120.29059
88522,20211201,202110,台南市,TNN15201,8,歸仁區公所(中正南路),22.96551,120.29418
88523,20211201,202110,台南市,TNN15202,8,歸仁市場,22.96687,120.29681
88524,20211201,202110,台南市,TNN15203,8,歸仁,22.96923,120.29995
88525,20211201,202110,台南市,TNN15204,8,看東里,22.96532,120.30392
88526,20211201,202110,台南市,TNN15205,8,修元堂,22.96454,120.30702
88527,20211201,202110,台南市,TNN15206,8,歸仁交流道,22.96281,120.31265
88528,20211201,202110,台南市,TNN15207,8,大亞公司,22.96199,120.31614
88529,20211201,202110,台南市,TNN15208,8,關廟國中,22.96034,120.32481
88530,20211201,202110,台南市,TNN15209,8,關廟國中,22.96046,120.32505
88531,20211201,202110,台南市,TNN15210,8,大亞公司,22.96187,120.31706
88532,20211201,202110,台南市,TNN15211,8,歸仁交流道,22.96294,120.31289
88533,20211201,202110,台南市,TNN15212,8,修元堂,22.96456,120.30736
88534,20211201,202110,台南市,TNN15213,8,看東里,22.96553,120.30382
88535,20211201,202110,台南市,TNN15214,8,歸仁,22.96914,120.29975
88536,20211201,202110,台南市,TNN15215,8,歸仁市場,22.96671,120.29667
88537,20211201,202110,台南市,TNN15216,8,歸仁區公所(中正南路),22.96597,120.29405
88538,20211201,202110,台南市,TNN15217,8,崁仔頭,22.96241,120.29068999999998
88539,20211201,202110,台南市,TNN15218,8,崁仔下,22.96025,120.28741
88540,20211201,202110,台南市,TNN15219,8,歸南,22.95822,120.28432
88541,20211201,202110,台南市,TNN15220,8,頂歸南,22.95645,120.28258
88542,20211201,202110,台南市,TNN15221,8,歸南派出所,22.95434,120.28043999999998
88543,20211201,202110,台南市,TNN15222,8,六甲,22.95259,120.27721
88544,20211201,202110,台南市,TNN15223,8,社尾,22.952720000000006,120.27507
88545,20211201,202110,台南市,TNN15224,8,上崙子,22.94266,120.25881
88546,20211201,202110,台南市,TNN15225,8,田厝,22.93793,120.24792
88547,20211201,202110,台南市,TNN15226,8,蔦松腳,22.93968,120.24865
88548,20211201,202110,台南市,TNN15227,8,鉅全公司,22.94489,120.25052
88549,20211201,202110,台南市,TNN15229,8,後壁厝,22.95049,120.25146
88550,20211201,202110,台南市,TNN15230,8,北保仔,22.95356,120.25201
88551,20211201,202110,台南市,TNN15231,8,崙仔尾,22.96035,120.25352
88552,20211201,202110,台南市,TNN15232,8,中正路(仁德),22.96442,120.25345
88553,20211201,202110,台南市,TNN15233,8,土庫仔,22.96666,120.25309
88554,20211201,202110,台南市,TNN15234,8,仁德,22.97105,120.25175
88555,20211201,202110,台南市,TNN15245,8,臺南火車站(南站),22.99706,120.21119
88556,20211201,202110,台南市,TNN15247,8,臺南轉運站,23.00185,120.20908
88557,20211201,202110,台南市,TNN15248,8,臺南火車站(北站),22.99769,120.21161
88558,20211201,202110,台南市,TNN15249,8,中山、民權路口,22.99398,120.20709
88559,20211201,202110,台南市,TNN15250,8,開山路,22.99072,120.20626
88560,20211201,202110,台南市,TNN15251,8,延平郡王祠,22.98755,120.20861
88561,20211201,202110,台南市,TNN15252,8,聯合報,22.98241,120.21136
88562,20211201,202110,台南市,TNN15257,8,大同、機場路口,22.96198,120.21671
88563,20211201,202110,台南市,TNN15258,8,仁愛里國泰社區,22.95406,120.21767
88564,20211201,202110,台南市,TNN15259,8,空軍臺南基地,22.95165,120.21656000000002
88565,20211201,202110,台南市,TNN15260,8,臺南航空站(奇美幸福工廠),22.94825,120.21661
88566,20211201,202110,台南市,TNN15261,8,臺南都會公園,22.93735,120.22282
88567,20211201,202110,台南市,TNN15263,8,保安轉運站,22.93298,120.23057
88568,20211201,202110,台南市,TNN15264,8,嘉南藥理大學,22.92125,120.22471000000002
88569,20211201,202110,台南市,TNN15265,8,保安,22.921470000000006,120.23722
88570,20211201,202110,台南市,TNN15266,8,中生里,22.90868,120.25003999999998
88571,20211201,202110,台南市,TNN15267,8,中洲,22.90785,120.25072
88572,20211201,202110,台南市,TNN15268,8,依仁派出所,22.90822,120.25299
88573,20211201,202110,台南市,TNN15269,8,依仁國小,22.90933,120.26132
88574,20211201,202110,台南市,TNN15270,8,南大潭,22.91032,120.26859
88575,20211201,202110,台南市,TNN15271,8,大潭,22.91186,120.27041
88576,20211201,202110,台南市,TNN15272,8,大潭國小,22.91405,120.27123
88577,20211201,202110,台南市,TNN15273,8,武東,22.91747,120.27272
88578,20211201,202110,台南市,TNN15274,8,臺南監獄,22.92401,120.27577
88579,20211201,202110,台南市,TNN15275,8,高鐵台南站,22.92401,120.28587
88580,20211201,202110,台南市,TNN15276,8,窩仔底,22.92895,120.27749
88581,20211201,202110,台南市,TNN15277,8,成大歸仁校區,22.93635,120.27705
88582,20211201,202110,台南市,TNN15278,8,上帝廟,22.96896,120.27391
88583,20211201,202110,台南市,TNN15279,8,南興里,22.96859,120.27743999999998
88584,20211201,202110,台南市,TNN15280,8,南保,22.96811,120.28153
88585,20211201,202110,台南市,TNN15281,8,姓李仔,22.96776,120.28551000000002
88586,20211201,202110,台南市,TNN15282,8,後市,22.96733,120.28867
88587,20211201,202110,台南市,TNN15283,8,歸仁區公所,22.96668,120.29359
88588,20211201,202110,台南市,TNN15284,8,善化寺,22.96597,120.30072
88589,20211201,202110,台南市,TNN15285,8,看東里,22.96532,120.30392
88590,20211201,202110,台南市,TNN15286,8,修元堂,22.96454,120.30702
88591,20211201,202110,台南市,TNN15287,8,歸仁交流道,22.96281,120.31265
88592,20211201,202110,台南市,TNN15288,8,大亞公司,22.96199,120.31614
88593,20211201,202110,台南市,TNN15289,8,關廟國中,22.96034,120.32481
88594,20211201,202110,台南市,TNN15290,8,關廟國中,22.96046,120.32505
88595,20211201,202110,台南市,TNN15291,8,大亞公司,22.96187,120.31706
88596,20211201,202110,台南市,TNN15292,8,歸仁交流道,22.96294,120.31289
88597,20211201,202110,台南市,TNN15293,8,修元堂,22.96456,120.30736
88598,20211201,202110,台南市,TNN15294,8,看東里,22.96553,120.30382
88599,20211201,202110,台南市,TNN15295,8,善化寺,22.96603,120.30109
88600,20211201,202110,台南市,TNN15296,8,歸仁區公所,22.96684,120.29368
88601,20211201,202110,台南市,TNN15297,8,後市,22.96735,120.28846
88602,20211201,202110,台南市,TNN15298,8,姓李仔,22.96777,120.28558
88603,20211201,202110,台南市,TNN15299,8,南保,22.96828,120.28158
88604,20211201,202110,台南市,TNN15300,8,南興里,22.96876,120.27751
88605,20211201,202110,台南市,TNN15301,8,上帝廟,22.96918,120.27397
88606,20211201,202110,台南市,TNN15302,8,成大歸仁校區,22.93645,120.27683
88607,20211201,202110,台南市,TNN15303,8,窩仔底,22.92863,120.27723
88608,20211201,202110,台南市,TNN15304,8,高鐵台南站,22.92395,120.28579
88609,20211201,202110,台南市,TNN15305,8,臺南監獄,22.92414,120.27546
88610,20211201,202110,台南市,TNN15306,8,武東,22.91745,120.27259
88611,20211201,202110,台南市,TNN15307,8,大潭國小,22.91424,120.27142
88612,20211201,202110,台南市,TNN15308,8,大潭,22.91205,120.27045
88613,20211201,202110,台南市,TNN15309,8,南大潭,22.91041,120.26842
88614,20211201,202110,台南市,TNN15310,8,依仁國小,22.90949,120.26132
88615,20211201,202110,台南市,TNN15311,8,依仁派出所,22.90817,120.25338
88616,20211201,202110,台南市,TNN15312,8,中洲,22.90785,120.25086
88617,20211201,202110,台南市,TNN15313,8,中生里,22.90882,120.25007
88618,20211201,202110,台南市,TNN15314,8,保安,22.92174,120.23704
88619,20211201,202110,台南市,TNN15315,8,嘉南藥理大學,22.92099,120.22508
88620,20211201,202110,台南市,TNN15316,8,保安轉運站,22.93261,120.23074
88621,20211201,202110,台南市,TNN15317,8,十鼓文化村,22.93863,120.22902
88622,20211201,202110,台南市,TNN15318,8,臺南都會公園,22.93751,120.22281
88623,20211201,202110,台南市,TNN15319,8,臺南航空站(奇美幸福工廠),22.94801,120.21673
88624,20211201,202110,台南市,TNN15320,8,空軍臺南基地,22.95131,120.21679
88625,20211201,202110,台南市,TNN15321,8,仁愛里國泰社區,22.95371,120.21791
88626,20211201,202110,台南市,TNN15322,8,大同、機場路口,22.96124,120.21703
88627,20211201,202110,台南市,TNN15327,8,聯合報,22.98342,120.21111
88628,20211201,202110,台南市,TNN15328,8,延平郡王祠,22.98752,120.20861
88629,20211201,202110,台南市,TNN15329,8,開山路,22.99051,120.20649
88630,20211201,202110,台南市,TNN15330,8,中山、民權路口,22.99375,120.20709
88631,20211201,202110,台南市,TNN15331,8,臺南火車站(南站),22.99706,120.21119
88632,20211201,202110,台南市,TNN15332,8,臺南轉運站,23.00185,120.20908
88633,20211201,202110,台南市,TNN15333,8,臺南轉運站,23.00185,120.20908
88634,20211201,202110,台南市,TNN15334,8,臺南火車站(北站),22.99762,120.21158
88635,20211201,202110,台南市,TNN15335,8,東門圓環,22.99086,120.21149
88636,20211201,202110,台南市,TNN15336,8,胸腔醫院,22.98732,120.21132
88637,20211201,202110,台南市,TNN15337,8,聯合報,22.98241,120.21136
88638,20211201,202110,台南市,TNN15338,8,大林新城,22.97731,120.21365
88639,20211201,202110,台南市,TNN15339,8,大林,22.97355,120.21451
88640,20211201,202110,台南市,TNN15340,8,巴克禮公園,22.97395,120.22236
88641,20211201,202110,台南市,TNN15341,8,崇德五街口,22.97506,120.22604
88642,20211201,202110,台南市,TNN15342,8,市立醫院,22.96921,120.22748
88643,20211201,202110,台南市,TNN15343,8,東區電信局,22.96593,120.22746
88644,20211201,202110,台南市,TNN15344,8,第一分局,22.96641,120.23274
88645,20211201,202110,台南市,TNN15345,8,德高國小,22.96241,120.23594
88646,20211201,202110,台南市,TNN15346,8,中華醫事科技大學,22.96061,120.24444
88647,20211201,202110,台南市,TNN15347,8,仁德國中,22.95621,120.24691
88648,20211201,202110,台南市,TNN15348,8,後壁厝,22.95052,120.25149
88649,20211201,202110,台南市,TNN15349,8,三塊厝(仁德),22.94815,120.25117
88650,20211201,202110,台南市,TNN15350,8,鉅全公司,22.94469,120.25034
88651,20211201,202110,台南市,TNN15351,8,蔦松腳,22.93981,120.24849
88652,20211201,202110,台南市,TNN15352,8,田厝,22.93852,120.24808
88653,20211201,202110,台南市,TNN15353,8,奇美公司,22.92721,120.24281
88654,20211201,202110,台南市,TNN15354,8,保安工業區,22.92483,120.23994
88655,20211201,202110,台南市,TNN15355,8,保安宮,22.92362,120.23566
88656,20211201,202110,台南市,TNN15356,8,保安轉運站,22.93261,120.23074
88657,20211201,202110,台南市,TNN15361,8,保安轉運站,22.93298,120.23057
88658,20211201,202110,台南市,TNN15362,8,保安宮,22.92386,120.23517
88659,20211201,202110,台南市,TNN15363,8,保安工業區,22.92481,120.24014
88660,20211201,202110,台南市,TNN15364,8,奇美公司,22.92707,120.24276
88661,20211201,202110,台南市,TNN15365,8,田厝,22.93793,120.24792
88662,20211201,202110,台南市,TNN15366,8,蔦松腳,22.93968,120.24865
88663,20211201,202110,台南市,TNN15367,8,鉅全公司,22.94489,120.25052
88664,20211201,202110,台南市,TNN15369,8,後壁厝,22.95049,120.25146
88665,20211201,202110,台南市,TNN15370,8,仁德國中,22.95633,120.24698
88666,20211201,202110,台南市,TNN15371,8,中華醫事科技大學,22.96061,120.24444
88667,20211201,202110,台南市,TNN15372,8,德高國小,22.96253,120.23604
88668,20211201,202110,台南市,TNN15373,8,第一分局,22.96595,120.23293
88669,20211201,202110,台南市,TNN15374,8,東區電信局,22.96565,120.22762
88670,20211201,202110,台南市,TNN15375,8,市立醫院,22.96872,120.22748
88671,20211201,202110,台南市,TNN15376,8,崇德五街口,22.97511,120.22601
88672,20211201,202110,台南市,TNN15377,8,巴克禮公園,22.97402,120.22208
88673,20211201,202110,台南市,TNN15378,8,大林,22.97306,120.21464
88674,20211201,202110,台南市,TNN15379,8,大林新城,22.978620000000006,120.21339
88675,20211201,202110,台南市,TNN15380,8,聯合報,22.98342,120.21111
88676,20211201,202110,台南市,TNN15381,8,胸腔醫院,22.98735,120.21135
88677,20211201,202110,台南市,TNN15382,8,東門圓環,22.99081,120.21151
88678,20211201,202110,台南市,TNN15383,8,臺南火車站(南站),22.99706,120.21119
88679,20211201,202110,台南市,TNN15384,8,臺南轉運站,23.00185,120.20908
88680,20211201,202110,台南市,TNN15385,8,關廟區公所,22.96268,120.32797
88681,20211201,202110,台南市,TNN15386,8,北勢里,22.96181,120.33075
88682,20211201,202110,台南市,TNN15387,8,得玉興書局,22.95951,120.32935
88683,20211201,202110,台南市,TNN15388,8,中山路,22.95997,120.32802
88684,20211201,202110,台南市,TNN15389,8,關廟國中,22.96046,120.32505
88685,20211201,202110,台南市,TNN15390,8,大亞公司,22.96187,120.31706
88686,20211201,202110,台南市,TNN15391,8,歸仁交流道,22.96294,120.31289
88687,20211201,202110,台南市,TNN15392,8,修元堂,22.96456,120.30736
88688,20211201,202110,台南市,TNN15393,8,看東里,22.96553,120.30382
88689,20211201,202110,台南市,TNN15394,8,善化寺,22.96603,120.30109
88690,20211201,202110,台南市,TNN15395,8,歸仁區公所,22.96684,120.29368
88691,20211201,202110,台南市,TNN15396,8,後市,22.96735,120.28846
88692,20211201,202110,台南市,TNN15397,8,姓李仔,22.96777,120.28558
88693,20211201,202110,台南市,TNN15398,8,南保,22.96828,120.28158
88694,20211201,202110,台南市,TNN15399,8,南興里,22.96876,120.27751
88695,20211201,202110,台南市,TNN15400,8,上帝廟,22.96918,120.27397
88696,20211201,202110,台南市,TNN15401,8,南紡世貿展覽中心,22.96955,120.27051000000002
88697,20211201,202110,台南市,TNN15402,8,林仔,22.97016,120.26516
88698,20211201,202110,台南市,TNN15403,8,義林一街口,22.97054,120.26216
88699,20211201,202110,台南市,TNN15404,8,慈濟台南分會,22.97068,120.26027
88700,20211201,202110,台南市,TNN15405,8,鍾厝,22.97083,120.25821
88701,20211201,202110,台南市,TNN15406,8,仁義里,22.97112000000001,120.25565
88702,20211201,202110,台南市,TNN15407,8,仁德,22.97162,120.25227
88703,20211201,202110,台南市,TNN15408,8,仁德區公所,22.97311,120.25235
88704,20211201,202110,台南市,TNN15409,8,一甲廟路口,22.97731,120.25441
88705,20211201,202110,台南市,TNN15410,8,漢平公司,22.97875,120.25542
88706,20211201,202110,台南市,TNN15411,8,土庫,22.98777,120.25843
88707,20211201,202110,台南市,TNN15412,8,太子廟,22.99081,120.25582
88708,20211201,202110,台南市,TNN15413,8,大灣,22.99919,120.25896000000002
88709,20211201,202110,台南市,TNN15414,8,下巷仔,23.00603,120.26171
88710,20211201,202110,台南市,TNN15415,8,楊慶祥中醫診所,23.00991,120.26287
88711,20211201,202110,台南市,TNN15416,8,永大公園,23.01321,120.26383
88712,20211201,202110,台南市,TNN15417,8,國通汽車公司,23.02161,120.26145
88713,20211201,202110,台南市,TNN15418,8,永康(永大路),23.02515,120.26084
88714,20211201,202110,台南市,TNN15419,8,埔園里,23.03371,120.25972
88715,20211201,202110,台南市,TNN15420,8,永康火車站,23.03842,120.25366
88716,20211201,202110,台南市,TNN15421,8,永康農會,23.02533,120.25565
88717,20211201,202110,台南市,TNN15422,8,臺南大學附中,23.02331,120.25181
88718,20211201,202110,台南市,TNN15423,8,二王,23.02129,120.24746
88719,20211201,202110,台南市,TNN15424,8,康福新城,23.02021,120.24351
88720,20211201,202110,台南市,TNN15425,8,中興,23.01863,120.24053
88721,20211201,202110,台南市,TNN15426,8,南工社區,23.01492,120.23501
88722,20211201,202110,台南市,TNN15427,8,臺南高工,23.01418,120.23035
88723,20211201,202110,台南市,TNN15428,8,大橋,23.01849,120.22645
88724,20211201,202110,台南市,TNN15429,8,奇美醫院,23.02096,120.22168
88725,20211201,202110,台南市,TNN15430,8,奇美醫院,23.02096,120.22168
88726,20211201,202110,台南市,TNN15431,8,大橋,23.01776,120.22713
88727,20211201,202110,台南市,TNN15432,8,臺南高工,23.01458,120.22996
88728,20211201,202110,台南市,TNN15433,8,南工社區,23.01466,120.23468
88729,20211201,202110,台南市,TNN15434,8,中興,23.01844,120.24038
88730,20211201,202110,台南市,TNN15435,8,康福新城,23.02009,120.24349
88731,20211201,202110,台南市,TNN15436,8,二王,23.02115,120.24729
88732,20211201,202110,台南市,TNN15437,8,臺南大學附中,23.02356,120.25221
88733,20211201,202110,台南市,TNN15438,8,永康農會,23.02505,120.25492
88734,20211201,202110,台南市,TNN15439,8,永康火車站,23.03842,120.25366
88735,20211201,202110,台南市,TNN15440,8,埔園里,23.03438,120.25943
88736,20211201,202110,台南市,TNN15441,8,永康(永大路),23.02414,120.26088
88737,20211201,202110,台南市,TNN15442,8,國通汽車公司,23.02051,120.26171
88738,20211201,202110,台南市,TNN15443,8,永大公園,23.01176,120.26323
88739,20211201,202110,台南市,TNN15444,8,楊慶祥中醫診所,23.00907,120.26238
88740,20211201,202110,台南市,TNN15445,8,下巷仔,23.00594,120.26146
88741,20211201,202110,台南市,TNN15446,8,大灣,23.00114,120.25949
88742,20211201,202110,台南市,TNN15447,8,太子廟,22.99102,120.25566
88743,20211201,202110,台南市,TNN15448,8,土庫,22.98765,120.25821
88744,20211201,202110,台南市,TNN15449,8,漢平公司,22.97858,120.25504
88745,20211201,202110,台南市,TNN15450,8,一甲廟路口,22.97711,120.25414
88746,20211201,202110,台南市,TNN15451,8,仁德區公所,22.97251,120.25195
88747,20211201,202110,台南市,TNN15452,8,仁德,22.97149,120.25216
88748,20211201,202110,台南市,TNN15453,8,仁義里,22.97115,120.25508
88749,20211201,202110,台南市,TNN15454,8,鍾厝,22.97082,120.25799
88750,20211201,202110,台南市,TNN15455,8,慈濟台南分會,22.97065,120.26026
88751,20211201,202110,台南市,TNN15456,8,義林一街口,22.97044,120.26197
